Address,Area,Longitude,Latitude,Living area (m2),Rooms,Floor,Rent,Sold date,Listed price,Sold for (SEK),LongitudeXLatitude
Grevgatan 20,Östermalm,18.08450669,59.33344434,101,3,2,3451,2017-10-28,10900000,11400000,1073.01607110747
Beckomberga Allé 25,Bromma Beckomberga,17.90433803,59.35820173,128.5,4,4,5251,2017-10-28,6495000,6550000,1062.76930862685
Norrbackagatan 16,Birkastan,18.03252339,59.33889644,22,1,0.5,1204,2017-10-28,1995000,2300000,1070.03003799109
Lindhagensgatan 141,Kungsholmen-Hornsbergs Strand,18.00495661,59.33905805,89,3,6,5004,2017-10-28,6690000,6700000,1068.39716546852
Bageribacken 2,Katarina/Sofia,18.10869724,59.31370091,55,2,3,2947,2017-10-28,3495000,3780000,1074.0938519631
Högalidsgatan 36A,Södermalm,18.03790069,59.31831054,29,1,6,1917,2017-10-28,2580000,2830000,1069.9777946191
Smedsbacksgatan 8,Gärdet,18.1006,59.3471,34,1,1,1898,2017-10-28,2695000,2650000,1074.21811826
Tranebergsvägen 10,Bromma Traneberg,17.99060583,59.33449178,68,3,2,3697,2017-10-28,3995000,3995000,1067.46345373736
Åsögatan 164,Södermalm,18.08436205,59.313803,68,2.5,4,2187,2017-10-28,4750000,5100000,1072.65228801438
Tomtebogatan 23,Vasastan,18.03174731,59.34123438,96,3,3,2533,2017-10-28,8395000,9002000,1070.02614340364
Kirunagatan 23A,Hässelby-Vällingby,17.86211521,59.36570545,65,3,1,4668,2017-10-28,1975000,1975000,1060.39707027082
Fridhemsgatan 12,Kungsholmen,18.02763242,59.33071752,52,2,2.5,2318,2017-10-28,3995000,4475000,1069.59236666541
Petrejusvägen 18,Hammarbyhöjden,18.0955588,59.2977084,99,4,0,5338,2017-10-27,3995000,3995000,1073.02516905745
Östhammarsgatan 69,Gärdet,18.11159492,59.3436014,25.5,1,3,1458,2017-10-27,1995000,2400000,1074.80726965075
Sankt Eriksgatan 4,Kungsholmen,18.0292,59.32916,50,2,3,2921,2017-10-27,3995000,4400000,1069.657291472
Sten Bergmans väg 59,Hammarbyhöjden,18.10586572,59.29650051,61,2,3,3636,2017-10-27,3150000,3550000,1073.61447589997
Kristinebergsvägen 30,Kungsholmen,18.01405907,59.33314565,78,3,3,3619,2017-10-27,5150000,5425000,1068.83079054801
Furusundsgatan 15,Gärdet,18.09943155,59.34676005,60,3,8,3572,2017-10-27,4495000,5150000,1074.14262123925
Fyrskeppsvägen 120,Johanneshov,18.11322,59.28744,39,1,1,2517,2017-10-27,1995000,2250000,1073.8864439568
Sicklingsvägen 2,Enskede,18.08014,59.26302,53,2,3,3056,2017-10-27,2050000,2620000,1071.4836984228
Nybohovsbacken 68,Liljeholmen,18.01238212,59.30936227,82,4,7,5196,2017-10-27,4995000,5000000,1068.30289650075
Svartågatan 53,Bagarmossen,18.13946,59.27406,69,3,2,4648,2017-10-27,2700000,2900000,1075.1994404076
Hornsgatan 71,Södermalm,18.05284,59.31755,64,2,3,3338,2017-10-27,4895000,4600000,1070.850239342
Marviksvägen 12,Årsta,18.06355,59.30022,123,5,4,6983,2017-10-27,6475000,6825000,1071.172488981
Båtbyggargatan 34,Hammarby Sjöstad,18.10982096,59.30598262,88,3,0,5625,2017-10-27,5195000,5195000,1074.02072710507
Skånegatan 81,Södermalm,18.08352376,59.31290664,91,3,5,3821,2017-10-27,10450000,11100000,1072.5863564991
Skeppargatan 100,Gärdet,18.0907232,59.34301132,43.5,2,2,2346,2017-10-27,3690000,4170000,1073.55799164459
Olaus Magnus väg 46,Johanneshov,18.0938,59.2967,39,2,1,2925,2017-10-27,1995000,2330000,1072.90263046
Edagränd 8,Farsta,18.09905223,59.23865055,80,3,3,4415,2017-10-27,3395000,3650000,1072.16343033917
Ymsenvägen 10,Årsta,18.0683,59.2973,78,4,2,3030,2017-10-27,3795000,4000000,1071.40140559
Upplandsgatan 87,Vasastan,18.045,59.3459,34,1,0,1235,2017-10-27,3500000,3450000,1070.8967655
Voxnegränd 11,Skarpnäcks stadsdelsområde,18.13334769,59.27377016,60,2,1,3979,2017-10-27,2295000,2400000,1074.83188320843
Hägerstensvägen 109,Hägersten-Liljeholmen,18.00525916,59.30549068,100,4,3,4678,2017-10-27,6795000,7320000,1067.81072930436
Midsommarvägen 44,Hägersten-Liljeholmen,18.00801333,59.30046543,44,2,1,3003,2017-10-27,2595000,2770000,1067.88357193864
Essinge Brogata 39,Essingeöarna,18.003051,59.3247945,34,2,1,2500,2017-10-27,1995000,2275000,1068.02730094802
Södermannagatan 45,Södermalm,18.08267785,59.30949961,74,3,1,3733,2017-10-27,5995000,6150000,1072.47457489233
Tegelbruksvägen 20,Hägersten-Liljeholmen,18.01142456,59.30325429,51,2,0,3583,2017-10-27,3500000,3500000,1068.13609080683
Nykarlebygatan 69,Rinkeby-Kista,17.9157569,59.40999707,82.5,3,0,4999,2017-10-27,2800000,2820000,1064.37506493583
Torsgatan 27,Vasastan,18.03992595,59.33835562,29,1,2,1809,2017-10-27,2850000,2600000,1070.45954137957
Borgarfjordsgatan 21A,Rinkeby-Kista,17.94174291,59.40503992,59,2,19,3425,2017-10-27,2595000,2620000,1065.82995380293
Vibyholmsvägen 15,Älvsjö,18.03114961,59.28021771,87,4,1,4231,2017-10-27,2950000,3200000,1068.89047444238
Grev Magnigatan 17C,Östermalm,18.08709547,59.33386827,62,2,3,1807,2017-10-27,6550000,6700000,1073.17734000389
Wollmar Yxkullsgatan 11A,Södermalm,18.06266462,59.31648132,62,3,1,3725,2017-10-27,6000000,6050000,1071.41370852165
Alströmergatan 35,Kungsholmen,18.02965879,59.33538917,33,1,1.5,1758,2017-10-27,3000000,2650000,1069.79682090696
Primusgatan 88,Essingeöarna,18.0039352,59.3227305,88.5,3,2,4445,2017-10-27,5950000,6250000,1068.04259580906
Ola Hanssonsgatan 7,Kristineberg,18.00033689,59.33404855,45,2,1,2930,2017-10-27,3450000,3200000,1068.03286294762
Hammarby Kaj 4,Hammarby Sjöstad,18.08124304,59.30293119,113,4,8,5720,2017-10-27,8900000,10025000,1072.27071183079
Älvkarleövägen 4,Hjorthagen,18.09620976,59.35374221,44,2,2,2917,2017-10-27,2895000,3225000,1074.07776907313
Palmbladsvägen 2,Kungsholmen Fredhäll,18.0062561,59.3285997,34.5,2,1,2036,2017-10-27,2495000,2830000,1068.28596025258
Idungatan 14,Vasastan,18.04576278,59.34779155,58,3,2,1965,2017-10-27,4995000,5330000,1070.97616782819
Grusåsgränd 72,Enskededalen,18.09353828,59.2874221,130,6,1,5492,2017-10-27,5450000,5575000,1072.71924128887
Hantverkargatan 30,Kungsholmen Rådhuset,18.04214716,59.32926017,75,3,3,1380,2017-10-27,7450000,7400000,1070.42724288107
Rådmansgatan 39B,Centrum Norrmalm Vasastan,18.06034327,59.34075115,81,2,2,3278,2017-10-27,6995000,6650000,1071.71433566865
Bäckvägen 103,Telefonplan,17.99195451,59.30139155,45,2,2,4000,2017-10-27,1850000,2600000,1066.9479391473
Vickergatan 15,Södermalm,18.06560678,59.30679666,35.5,2,3,2038,2017-10-27,2495000,3100000,1071.41326784098
Ölandsgatan 46,Södermalm Katarina,18.07773471,59.30865423,46,2,1.5,3065,2017-10-27,3195000,3500000,1072.16611717706
Trollesundsvägen 31,Bandhagen,18.05209581,59.2694773,60.5,2,2,4402,2017-10-27,1700000,2170000,1069.93828282822
Birger Jarlsgatan 76,Östermalm,18.06356958,59.34390434,63,2,1,1982,2017-10-27,5250000,5600000,1071.96274519445
Sjöbjörnsvägen 9,Gröndal,18.0085006,59.3162237,66,3,3,3974,2017-10-27,4850000,4525000,1068.19625009118
Ystadsvägen 61,Björkhagen,18.1105113,59.29100006,63,3,2,3554,2017-10-27,2900000,3310000,1073.79032657493
Chapmansgatan 4,Kungsholmen,18.033,59.3285,27,1,1,1203,2017-10-27,2295000,2920000,1069.8708405
Blommensbergsvägen 155,Hägersten,17.99442,59.30642,56,3,3,3372,2017-10-27,3495000,3710000,1067.1846301764
Bjulevägen 29,Enskede-Årsta-Vantör,18.04219301,59.28084573,70,3,3,4397,2017-10-27,2350000,2500000,1069.55646045669
Hoburgsstigen 10,Bromma,17.98045185,59.33986427,46,2.5,1,2414,2017-10-27,2795000,2700000,1066.95757229227
Skidvägen 16,Hägersten-Liljeholmen,17.97623673,59.29362648,55,2,3,3101,2017-10-27,2395000,2950000,1065.87626618468
Skanörvägen 4,Björkhagen,18.11379433,59.29181642,80,4,2,4767,2017-10-27,4450000,5120000,1073.999768084
Fyrverkarbacken 21,Kungsholmen,18.02153476,59.32643743,128.5,5,2,5084,2017-10-27,8000000,9500000,1069.15345433171
Frejgatan 45,Vasastan,18.05437803,59.34640219,35,1,2,1722,2017-10-27,3250000,3600000,1071.46237985868
Tranebergsvägen 107,Bromma,17.97119737,59.33564635,68.5,3,3,3959,2017-10-27,3795000,3795000,1066.33261163237
Pilotgatan 5C,Skarpnäck,18.13289166,59.26489915,66,2,3,4627,2017-10-27,1950000,2280000,1074.64399552778
Floragatan 7,Östermalm,18.07475372,59.34209519,36,2,1,1832,2017-10-27,3695000,4000000,1072.59375578805
Tomtebogatan 5,Birkastan Vasastan,18.03633565,59.34123677,52,2,3.5,769,2017-10-27,4500000,4780000,1070.29846426984
Birkagatan 21,Birkastan,18.03419709,59.34060343,34,1,1,1125,2017-10-27,3200000,3420000,1070.16013769615
Katrinebergsbacken 24AV,Hägersten-Liljeholmen,18.02615751,59.31238349,104,4,7,5571,2017-10-27,5995000,6180000,1069.17436708426
Alströmergatan 32B,Kungsholmen,18.02594,59.33676,49,2,1.5,2222,2017-10-27,3450000,3850000,1069.6008755544
Bondegatan 22,Södermalm,18.07916799,59.31282961,71,3,4,3378,2017-10-27,5495000,5495000,1072.32661048144
Vedevågslingan 20,Hagsätra,18.01755,59.25784,87.5,4,3,4679,2017-10-27,1995000,2485000,1067.681095092
Imatragatan 101,Akalla,17.91760683,59.41071284,82.5,4,0,4967,2017-10-27,2920000,2920000,1064.49779415715
Vanadisplan 1,Vasastan,18.0402267,59.34469549,49,2,3,1901,2017-10-27,3750000,4240000,1070.59176008207
Folkparksvägen 182,Älvsjö,18.01140551,59.28288857,75,3,2,3717,2017-10-27,2795000,3610000,1067.76814583841
Ormbergsvägen 9,Gröndal,18.0090631,59.31723981,97,3.5,3,5061,2017-10-27,5850000,5850000,1068.24791465612
Tellusborgsvägen 90,Telefonplan,18.00199986,59.29879028,36,1.5,0,2060,2017-10-27,2625000,2570000,1067.49681431873
Helgalunden 13,Södermalm,18.07139978,59.31025309,20.5,1,3,1327,2017-10-27,1995000,2400000,1071.81929464237
Roslagsgatan 55,Vasastan,18.05616229,59.34969633,35.5,2,3,1770,2017-10-27,2950000,3500000,1071.6277487967
Årgångsgatan 1,Hägersten-Liljeholmen,18.03376007,59.30630112,108,4,23,5671,2017-10-27,9900000,9600000,1069.51560503725
Älvsborgsgatan 3,Södermalm,18.07337682,59.3091566,110,4,1,4312,2017-10-27,7975000,7300000,1071.91673610819
Upplandsgatan 59,Fastighetsbyrån Vasastan,18.04757172,59.34341469,87,4,2,2976,2017-10-27,7995000,8625000,1071.00453272748
Telefonvägen 19,Fastighetsbyrån Hägersten,18.00130576,59.29991416,71.3,2,5,3481,2017-10-27,2995000,3285000,1067.47588633591
Sparbanksvägen 24,Fastighetsbyrån Hägersten,17.98272295,59.2973346,69,2,2,2376,2017-10-27,2850000,3250000,1066.32753978525
Rosenlundsgatan 28B,Fastighetsbyrån Södermalm,18.05585792,59.31559599,28,1,1,933,2017-10-27,2495000,3160000,1070.99397363556
Bävervägen 46,Fastighetsbyrån Bromma,17.95301199,59.33518124,81,3,2,4869,2017-10-27,4295000,4730000,1065.24522023054
Ellen Keys gata 79,Fastighetsbyrån Hägersten,17.9664514,59.28436953,68,3,0.5,3365,2017-10-27,2650000,2950000,1065.12974394039
Rörstrandsgatan 48,Fastighetsbyrån Vasastan,18.02758743,59.34133229,26,2,1.5,1495,2017-10-27,2750000,3320000,1069.78105607066
Cedergrensvägen 52,Fastighetsbyrån Hägersten,17.99658033,59.30055945,35,2,1,2069,2017-10-27,2195000,2800000,1067.20728175587
Fendergatan 13,Fastighetsbyrån Hammarby Sjöstad,18.10475,59.30808,109,4,5,6612,2017-10-27,7950000,7650000,1073.75796138
Vittangigatan 5,Fastighetsbyrån Vällingby,17.87300913,59.36087299,41,1.5,1,2587,2017-10-27,1895000,2075000,1060.95742491504
Sveavägen 109,Vasastan,18.05319023,59.34614182,110,3.5,3,3704,2017-10-27,8750000,8750000,1071.38718769302
Norrbackagatan 24,Vasastan,18.03055,59.33966064,66,2,4,2395,2017-10-27,5275000,5300000,1069.92671815255
Sulitelmavägen 25,Traneberg,17.97684073,59.33809762,59,3,3,3149,2017-10-27,3500000,4300000,1066.71153013593
Parmmätargatan 22,Kungsholmen,18.04774,59.32971,20,1,3.5,1369,2017-10-27,1995000,2430000,1070.7671803554
Tjustgatan 4,Södermalm,18.07031,59.3121,24,1,5,2093,2017-10-27,2195000,2730000,1071.788033751
Kransbindarvägen 14,Midsommarkransen,18.00263,59.30222,47,2,3,2656,2017-10-27,2495000,3125000,1067.5959248386
Torsgatan 39,Vasastan,18.03833,59.3403,63,2.5,4,1798,2017-10-27,5650000,5900000,1070.399913699
Hägerstensvägen 150,Hägersten,17.99652,59.30554,53,2,3,2917,2017-10-27,2995000,2995000,1067.2933367208
Bränningevägen 1,Årsta,18.05007778,59.2980453,85,4,1,4498,2017-10-27,4750000,4475000,1070.33432986696
Skagersvägen 26,Årsta,18.0664245,59.29739343,94,4,4,5402,2017-10-27,5975000,6275000,1071.29188144989
Doktor Widerströms gata 78,Fruängen,17.95845,59.28718,59,2,2,3414,2017-10-27,2295000,2410000,1064.705857671
Riksbyvägen 10,Riksby,17.94602,59.33937,51,2,3,2638,2017-10-27,2495000,2710000,1064.9055208074
Krakel Spektakels gata 1,Bromma,17.9503,59.3654,81,3,3,4036,2017-10-27,3695000,3750000,1065.62673962
Bergsmarksvägen 8,Essingeöarna,17.9841,59.3198,67,3,2,3147,2017-10-27,4995000,5200000,1066.81321518
Ekshäradsgatan 83,Farsta,18.09224125,59.23662084,59.5,2,3,3342,2017-10-27,1995000,2425000,1071.72323507206
Essinge Brogata 22,Kungsholmen,18.00424723,59.3250887,24,1,2,1693,2017-10-27,1955000,2100000,1068.10356389648
Polhemsgatan 18,Kungsholmen,18.03618969,59.32935908,45,2,1,2785,2017-10-27,3595000,3875000,1070.075574553
Messeniusgatan 6,Kungsholmen,17.99982,59.33059,31,2,4,2059,2017-10-27,2650000,2650000,1067.9399404938
Tellusborgsvägen 90,Midsommarkransen,18.00199986,59.29879028,30,1,6,1670,2017-10-27,2195000,2750000,1067.49681431873
Eriksdalsgatan 26,Södermalm,18.06599736,59.30644728,33.5,2,2,2077,2017-10-27,2795000,3350000,1071.43011999146
Barrstigen 22,Bromma,17.95991063,59.33689937,56,2,3,2007,2017-10-27,2695000,2860000,1065.6854097465
Responsgatan 5,Telefonplan,18.00300837,59.2976728,63,2,3,2775,2017-10-26,3495000,3495000,1067.53649973992
Hövdingagatan 3A,Hägersten,17.99681783,59.30666086,56,3,3,3372,2017-10-26,3450000,3760000,1067.33117160301
Anders Reimers väg 2,Reimersholme,18.02554763,59.3186932,61,2,2,3703,2017-10-26,4895000,4800000,1069.25192962596
Helsingörsgatan 26,Rinkeby-Kista,17.94052252,59.40075864,77,3,1,3938,2017-10-26,2095000,2385000,1065.680648086
Ruddammsvägen 11,Norra Djurgården,18.06448093,59.35069455,104.5,4,5,6374,2017-10-26,6975000,6710000,1072.13948988073
Nynäsvägen 331,Enskede,18.09073597,59.28379254,92,4,0.5,4936,2017-10-26,4450000,4850000,1072.4874381414
Getfotsvägen 11,Farsta stadsdelsområde,18.07780436,59.26592414,56,1.5,0,3340,2017-10-26,1995000,2400000,1071.39778181752
Högalidsgatan 11A,Södermalm Hornstull,18.03357039,59.31780188,30,1,1,1330,2017-10-26,2550000,3025000,1069.71175558305
Artemisgatan 51,Hjorthagen,18.09788992,59.35649459,47,2,2,2761,2017-10-26,2895000,3650000,1074.2273051269
Langelandsgatan 8,Kista,17.94466059,59.40019702,81.5,3,1,3862,2017-10-26,1995000,2220000,1065.91637450303
Per Lindeströms väg 112,Hammarbyhöjden,18.10489959,59.29577405,56,2,2,3190,2017-10-26,3150000,3600000,1073.54403528658
Västeråsgatan 9,Vasastan,18.04147027,59.34683047,69,3,3,3469,2017-10-26,6475000,6400000,1070.70407754324
Lina Sandells Plan 3,Hägersten-Liljeholmen,17.96141513,59.28441611,66,3,1,4443,2017-10-26,2695000,2695000,1064.83200849137
Folkungagatan 84,Södermalm,18.07953715,59.31486908,41,2,3,1630,2017-10-26,3295000,3925000,1072.38537907925
Knypplerskevägen 34,Bromma,17.93312564,59.33869337,33,1,0,2195,2017-10-26,1495000,1970000,1064.12824351765
Sveavägen 87,Vasastan,18.05349095,59.34492913,80,3,2.5,3441,2017-10-26,6995000,6800000,1071.38314097685
Doktor Widerströms gata 31,Fastighetsbyrån Hägersten,17.95848861,59.2876398,68,3,0.5,3863,2017-10-26,2595000,2970000,1064.71640406208
Magnus Ladulåsgatan 27,Fastighetsbyrån Södermalm,18.06258795,59.31218396,116,6,4,5482,2017-10-26,7250000,7800000,1071.33153928408
Styrbordsgatan 4,Fastighetsbyrån Hammarby Sjöstad,18.10200307,59.30281153,83.5,3,6,4870,2017-10-26,5150000,5150000,1073.49967637569
Fruängstorget 3,Fastighetsbyrån Hägersten,17.96388101,59.28618115,30,1,6,2244,2017-10-26,1995000,2325000,1065.00990371591
Råggatan 14,Södermalm,18.06750458,59.30659918,31,1,1,1864,2017-10-26,2475000,2620000,1071.52225230887
Sköntorpsvägen 111,Årsta,18.0506078,59.30082263,32,1,6,2226,2017-10-26,2175000,2460000,1070.41589151149
Frövigatan 24,Hagsätra,18.01824,59.2646,66,3,1,3509,2017-10-26,1995000,2420000,1067.843786304
Sibeliusgången 44,Akalla,17.9101932,59.41624306,45.6,2,6,2897,2017-10-26,1775000,1900000,1064.15639242276
Järnlundsvägen 22,Årsta,18.0368793,59.29745916,55,2,7,3242,2017-10-26,2775000,3150000,1069.5411136656
Selebovägen 4,Enskede,18.06753922,59.27245331,90,4,3,5302,2017-10-26,3650000,4000000,1070.90737484404
Harry Martinsons gata 3,Kungsholmen,18.00766945,59.33933258,71,3,3,2746,2017-10-26,5395000,5300000,1068.56308648426
Fredhällsgatan 3,Fredhäll,18.00219886,59.33119353,40.5,2,2,1820,2017-10-26,2995000,3100000,1068.09194452821
Kyndelsmässogränd 11,Hägersten,18.0024128,59.29965591,42,2,3,3159,2017-10-26,2850000,3000000,1067.53688458978
Wallingatan 11,Norrmalm,18.05712461,59.33690484,21,1,1,1518,2017-10-26,2280000,2610000,1071.45388466759
Pastellvägen 14,Blåsut,18.08674693,59.29220541,82,3,2,3949,2017-10-26,3195000,3850000,1072.40311417225
Bäverdammsgränd 86,Rågsved,18.03287745,59.25188508,90.5,4,1,5544,2017-10-26,1895000,2420000,1068.48198232912
Årstavägen 51,Årsta,18.0512774,59.29671416,78,3,2,5171,2017-10-26,3495000,3875000,1070.38143621067
Vattenledningsvägen 31,Midsommarkransen,18.01164508,59.30365415,25,1,2,1997,2017-10-26,1995000,2340000,1068.15637049687
Lerbäcksgränd 15,Hagsätra,18.02142978,59.25968425,37,1,1,2886,2017-10-26,1595000,1920000,1067.94423849635
Tobaksspinnargatan 4,Södermalm,18.03057222,59.31813983,98,3.5,1,3623,2017-10-26,7195000,8100000,1069.54000416087
Stamgatan 33,Östberga,18.03689968,59.28496293,48,2,2,3358,2017-10-26,1695000,1800000,1069.31692890093
Södermalmstorg 8,Södermalm,18.070364,59.32007006,23,1,4,1314,2017-10-26,2195000,2600000,1071.9352584897
Västmannagatan 85B,Vasastan,18.04402471,59.34516593,42,1,1,1636,2017-10-26,3195000,3495000,1070.82564045997
Palandergatan 51,Johanneshov,18.09291959,59.29488942,35,2,3,2451,2017-10-26,2195000,2600000,1072.817666374
Tavastgatan 24,Södermalm Maria,18.06052123,59.31970009,43,2,2,2084,2017-10-26,3495000,3900000,1071.34470283268
Essinge Brogata 23,Lilla Essingen Kungsholmen,18.00533676,59.32453537,31,1,3,1831,2017-10-26,2395000,2950000,1068.15823746738
Franzéngatan 49,Kungsholmen,18.00705314,59.3394162,89.5,3,3,3181,2017-10-26,6295000,6400000,1068.52802080998
Wollmar Yxkullsgatan 48D,Södermalm-Högalid,18.05339667,59.31623114,25,1,2,1688,2017-10-26,1950000,2425000,1070.85944973983
Kristinehamnsgatan 91,Farsta,18.09430003,59.2387069,75,3,1,3755,2017-10-26,1995000,2660000,1071.88293603783
Völundsgatan 9,Vasastan,18.03724408,59.33868306,39,1.5,1,2759,2017-10-26,3275000,3325000,1070.30630973898
Sankt Paulsgatan 9,Södermalm,18.06904921,59.31827204,77,3,1,4860,2017-10-26,5150000,4800000,1071.82477654293
Upplandsgatan 34,Vasastan,18.05079704,59.34077131,43,2,6,1855,2017-10-26,3895000,4400000,1071.14821911386
Nicandervägen 7,Kungsholmen,18.01073313,59.33377495,43,2,1,2116,2017-10-26,2995000,3300000,1068.64478621993
Köpmangatan 4,Gamla Stan,18.07294965,59.32525383,49,2,3,3151,2017-10-26,5000000,5000000,1072.18232544306
Sankt Eriksgatan 84,Vasastan,18.03745501,59.34049,83,3,3,2680,2017-10-26,7195000,8000000,1070.35141864636
Rörstrandsgatan 14A,Birkastan,18.03380013,59.34043383,64,2,2,1728,2017-10-26,5450000,5510000,1070.13352331771
Orrfjärdsgränd 16,Enskede-Årsta-Vantör,18.06107121,59.29935484,39.5,1.5,2,2609,2017-10-26,2025000,2560000,1071.0098704723
Ågesta Broväg 42,Farsta Strand,18.10250759,59.24078107,94,4,2,5188,2017-10-26,3475000,3600000,1072.4066889572
Sankt Eriksgatan 41,Kungsholmen,18.03194,59.33398,47,3,1,1375,2017-10-26,3495000,3525000,1069.9067673212
Glädjevägen 8B,Hässelby Villastad,17.804501,59.38208104,78,3,1,4938,2017-10-26,2395000,2720000,1057.26832125876
Stramaljvägen 20,Riksby,17.95000823,59.33946234,51,2,2,2638,2017-10-26,2595000,2800000,1065.14383736678
Storgatan 48,Östermalm,18.09146686,59.33319844,42,2,2,1184,2017-10-26,4995000,5500000,1073.42459327506
Hammarby Allé 111,Hammarby Sjöstad,18.09817314,59.30406492,64,2,4,3804,2017-10-26,4650000,4600000,1073.29523482796
Paternostervägen 102,Hammarbyhöjden,18.10696033,59.29093332,56,2,1,3635,2017-10-26,2850000,3200000,1073.57857755392
Hövdingagatan 32,Aspudden,17.98960805,59.30724136,65,3,2,3450,2017-10-26,4400000,4200000,1066.91402659315
Valhallavägen 147,Östermalm,18.09010127,59.34120183,41,2,4,1509,2017-10-26,3850000,3500000,1073.48835058821
Förskottsvägen 3,Hägerstensåsen,17.98348775,59.29858804,56,3,3,3240,2017-10-26,2800000,2800000,1066.39543160964
Marieviksgatan 45,Liljeholmskajen,18.02800538,59.30826079,110,5,3,4705,2017-10-26,6995000,7139000,1069.20964460056
Skebokvarnsvägen 119,Bandhagen,18.03721046,59.26771545,80,4,2,3983,2017-10-26,2495000,2825000,1069.02425705504
Läckövägen 36,Johanneshov,18.10936332,59.2986862,41,2,3,2740,2017-10-26,2475000,3250000,1073.86145279447
Kungstensgatan 60,Vasastan,18.04899025,59.33930206,104,4,3,3269,2017-10-26,8475000,9900000,1071.01448432275
Love Almqvists väg 10,Kungsholmen,18.00018668,59.33474349,72,3,4,3750,2017-10-26,4995000,5775000,1068.03645942991
Gunnarskogsgatan 14,Farsta,18.08485835,59.24626915,45,1,4,2904,2017-10-26,1895000,2310000,1071.46038534373
Armfeltsgatan 18,Nedre Gärdet,18.09026,59.34394,80,3,1,3211,2017-10-26,6900000,6900000,1073.5473040244
Bildhuggarvägen 15,Johanneshov,18.07663,59.29486,49,2,2,3194,2017-10-26,2695000,3010000,1071.8512451218
Ringvägen 87B,Södermalm,18.06611538,59.30844614,49,2,3,2459,2017-10-26,3295000,3550000,1071.47323097376
Nybohovsbacken 31,Liljeholmen,18.0217338,59.3084124,58,2,1,2815,2017-10-26,2995000,2995000,1068.84042037342
Tegelbruksvägen 40,Fastighetsbyrån Hägersten,18.0091853,59.30202604,38,1,2,2193,2017-10-26,2395000,2720000,1067.98117561979
Dellensvägen 34,Fastighetsbyrån Årsta,18.04199549,59.3013771,72,3,3,3992,2017-10-26,3595000,3750000,1069.91517818899
Björksundsslingan 17,Fastighetsbyrån Farsta,18.05416351,59.26731336,58,2,1,3782,2017-10-26,2190000,2400000,1070.02176619985
Hammarby Allé 24,Fastighetsbyrån Hammarby Sjöstad,18.08957458,59.30286839,98,4,5,5466,2017-10-26,6200000,6200000,1072.76366054883
Ekebergabacken 2A,Fastighetsbyrån Farsta,18.1037461,59.24741875,80.5,3,3,5540,2017-10-26,2990000,2990000,1072.60022613038
Gransätragränd 37,Fastighetsbyrån Hägersten,17.91444403,59.28394698,87,3,0,4402,2017-10-26,2790000,2900000,1062.0389500507
Arkitektvägen 84,Fastighetsbyrån Bromma,17.94976561,59.33269507,40,2,2,2200,2017-10-26,2395000,2675000,1065.0079695161
Hornsgatan 151,Fastighetsbyrån Södermalm,18.03261276,59.31496518,24,1,2,1745,2017-10-26,2250000,2670000,1069.60379796382
Sysslomansgatan 24,Kungsholmen,18.02421519,59.33086553,71,2,3,3433,2017-10-26,4495000,4805000,1069.39228772167
Nockeby Backe 6,Bromma,17.91619062,59.33034924,48,2,5,3119,2017-10-26,2395000,2740000,1062.97384653501
Simrishamnsvägen 11,Björkhagen,18.11929822,59.28878648,63,3,1,2884,2017-10-26,3195000,3510000,1074.27120333302
Fjugestagränd 4,Ormkärr,18.00617337,59.26292515,75,4,1,3510,2017-10-26,2295000,2350000,1067.09850466423
Österlånggatan 23,Gamla Stan,18.07404822,59.32470061,51,2,1,2582,2017-10-25,5300000,5000000,1072.2374994622
Glavagatan 27,Farsta Strand,18.1000936,59.23570516,84,3,1,5192,2017-10-25,2295000,2800000,1072.171807858
Karlbergsvägen 37A,Vasastan,18.03931249,59.34239807,40,2,3,1358,2017-10-25,3490000,4100000,1070.4960626907
Ångermannagatan 158,Vällingby Centrum,17.87388682,59.36381985,58.5,2,4,3462,2017-10-25,2595000,2595000,1061.06219720177
Kirunagatan 25H,Vällingby Centrum,17.86170959,59.36591921,47,2,2,3376,2017-10-25,2050000,2025000,1060.37680847242
Skeppargatan 83,Östermalm,18.09057713,59.34337711,41.5,2,3,2229,2017-10-25,3450000,3100000,1073.55594076313
Farstavägen 87,Farsta stadsdelsområde,18.09113076,59.24549817,64,3,11,2567,2017-10-25,2895000,3335000,1071.81805433481
Wargentinsgatan 5D,Kungsholmen Sankt Eriksområdet,18.04044,59.33229,53.5,2,4,2980,2017-10-25,3995000,4100000,1070.3806178076
Valutavägen 80,Hägerstensåsen,17.97835691,59.29686648,54,2,3,3324,2017-10-25,2395000,2850000,1066.06022922206
Birkagatan 17A,Vasastan,18.03465787,59.3403137,35,1,1,1487,2017-10-25,2990000,3800000,1070.18225547797
Sköndalsvägen 100,Sköndal,18.1167,59.2535,84,4,4,3559,2017-10-25,3195000,3195000,1073.47788345
Helsingforsgatan 29,Kista,17.91903909,59.4122435,39,1,2,2571,2017-10-25,1595000,1750000,1064.6103137011
Grubbensringen 31,Kungsholmen,18.04064456,59.33386462,153.5,6,3,9836,2017-10-25,11500000,12575000,1070.42116198058
Gamla Södertäljevägen 8,Fastighetsbyrån Hägersten,17.95670739,59.28291451,40,2,2,2207,2017-10-25,2250000,2550000,1064.52594908246
Bärkingeplan 12,Fastighetsbyrån Kista,17.89724967,59.39151016,77,4,2,4818,2017-10-25,1795000,1805000,1062.94468561186
Tjärhovsgatan 14,Fastighetsbyrån Södermalm,18.0759336,59.31503222,97,3,3,2287,2017-10-25,7850000,7720000,1072.17458389058
Drachmannsgatan 18,Fastighetsbyrån Bromma,17.88911824,59.34563009,54,2,1,3498,2017-10-25,2195000,2195000,1061.64099370731
Gustavslundsvägen 149R,Bromma,17.98328936,59.33178715,73.5,2,4,3875,2017-10-25,4495000,5300000,1066.98069656438
Sankt Eriksgatan 40,Fastighetsbyrån Kungsholmen,18.03273797,59.33426743,44,3,1,507,2017-10-25,3495000,4680000,1069.9592972071
Stopvägen 79,Fastighetsbyrån Bromma,17.94305385,59.33691793,41,2,3,2815,2017-10-25,2395000,2780000,1064.68551371102
Hövdingagatan 3,Aspudden,17.99722,59.30657,56,2.5,3,3372,2017-10-25,3495000,3400000,1067.3533877354
Filipstadsbacken 66,Farsta,18.10594648,59.23792372,68,3,6,4288,2017-10-25,2145000,2500000,1072.55867646064
Brattforsgatan 5,Farsta,18.1016,59.2381,44,2,2,2967,2017-10-25,2100000,2500000,1072.30439096
Tegelviksgatan 66,Södermalm,18.0969,59.3084,62,3,0,5342,2017-10-25,0,5800000,1073.29818396
Riksbyvägen 21,Bromma,17.94491172,59.34054872,67,3,3,3454,2017-10-25,2875000,3350000,1064.86090819676
Skulptörvägen 17,Gullmarsplan,18.07430615,59.29609536,48,2,5,3073,2017-10-25,3295000,3020000,1071.73578103623
Norrskogsvägen 21,Essingeöarna,17.99311042,59.32248049,33,2,2,1999,2017-10-25,2295000,2900000,1067.39594184487
Roslagsgatan 17A,Ög,18.05895971,59.34663667,30,1,2,563,2017-10-25,2995000,3450000,1071.73852054754
Wargentinsgatan 5D,Kungsholmen,18.04044,59.33229,55,2,2,3000,2017-10-25,3995000,3995000,1070.3806178076
Wahlbergsgatan 15,Hammarbyhöjden,18.09798844,59.29873356,38,2,1,2362,2017-10-25,2195000,2500000,1073.18779447552
Frödingsvägen 2,Kungsholmen,18.0032,59.33124,43,2,2,2043,2017-10-25,2995000,3400000,1068.152179968
Åsögatan 102,Södermalm Katarina,18.07164184,59.31252252,70,2,5,3609,2017-10-25,4995000,5550000,1071.87466360837
Follingbogatan 26,Bromma Beckomberga,17.90150348,59.35860436,82.5,3,2,3564,2017-10-25,3850000,3850000,1062.60826251848
Linnégatan 56,Östermalm,18.08572471,59.33601256,60,2,3,2588,2017-10-25,5895000,6150000,1073.13478854926
Årgångsgatan 1,Liljeholmskajen,18.03376007,59.30630112,108,3,16,5451,2017-10-25,8950000,8600000,1069.51560503725
Kungsholmstorg 2,Kungsholmen,18.04256558,59.32705455,65,2,1.5,2252,2017-10-25,5350000,5625000,1070.41227238661
Cedergrensvägen 20,Hägersten-Liljeholmen,18.00105374,59.30236991,35,2,2,2069,2017-10-25,2150000,2650000,1067.50514765927
Luxgatan 25,Lilla Essingen,18.00497174,59.32346396,62,2,1,3727,2017-10-25,3975000,4100000,1068.11729211871
Ringvägen 86,Södermalm,18.07008191,59.30731126,51,2,5,2885,2017-10-25,3995000,4300000,1071.68797233007
Babordsgatan 12,Hammarby Sjöstad,18.09975028,59.30413612,106.5,3,4,5527,2017-10-25,6700000,7250000,1073.39005434313
Gyllenborgsgatan 9,Kungsholmen,18.01587224,59.33268598,19,1,3,1112,2017-10-25,1875000,2550000,1068.93009027172
Stångåvägen 16,Bagarmossen,18.13600302,59.27412062,55,2,1,3902,2017-10-25,2195000,2450000,1074.99563057216
Bergsgatan 3A,Kungsholmen,18.0463,59.3292,56,2,2,2253,2017-10-25,4895000,5300000,1070.67254196
Dianavägen 22,Hjorthagen,18.1006921,59.35684033,45,2,1,3369,2017-10-25,2995000,3400000,1074.39989084219
Åsögatan 107,Södermalm Katarina,18.07328224,59.31299653,70,3,2,3705,2017-10-25,4995000,5500000,1071.98052678683
Sareksvägen 1,Traneberg,17.97894359,59.33585975,70,3,3,3666,2017-10-25,4750000,4775000,1066.7960753094
Kubbegatan 18,Sköndal,18.11155353,59.25633259,40,1.5,1,2625,2017-10-25,1695000,2240000,1073.22423969527
Götgatan 94,Södermalm,18.07524513,59.30971022,68.5,3,5,2220,2017-10-25,5195000,5500000,1072.03755081577
Gyllenborgsgatan 16,Kungsholmen,18.01621556,59.33287204,34,1.5,1,1750,2017-10-25,2695000,2850000,1068.95381246654
Kratsbodavägen 50C,Bromma,17.95442879,59.36141281,53,2,4,3188,2017-10-25,2995000,3550000,1065.80025917094
Skebokvarnsvägen 125,Högdalen,18.03808704,59.26771586,61,3,0,3237,2017-10-25,1895000,2120000,1069.07621734467
Boforsgatan 7,Farsta,18.0928731,59.23731307,76.5,3,5,4015,2017-10-25,2195000,2570000,1071.77318816048
Tombolavägen 7,Telefonplan,18.00774029,59.29624067,69,3,0,3954,2017-10-25,3325000,3200000,1067.7913021587
Dalagatan 86E,Vasastan,18.04200768,59.34643501,48,2,2.5,2754,2017-10-25,3850000,3850000,1070.72883623104
Hornsbergs Strand 85,Kungsholmen-Hornsbergs Strand,18.0041965,59.3392043,86,3,4,4866,2017-10-25,7950000,8400000,1068.35469437085
Ploggatan 18,Södermalm,18.09171605,59.31291905,45,1.5,2.5,2222,2017-10-25,3450000,3550000,1073.07248954924
Luntmakargatan 10,Vasastan-Norrmalm,18.06418419,59.33663673,70,2,0.5,3728,2017-10-25,5995000,6500000,1071.86793510584
Nybohovsbacken 67,Liljeholmen,18.01528003,59.30828058,72,3,3,2379,2017-10-25,3795000,3875000,1068.45528274651
Maria Prästgårdsgata 24,Södermalm,18.06236517,59.31608397,55,2,3,2667,2017-10-25,4495000,4620000,1071.38876912052
Upplandsgatan 29,Vasastan,18.05143833,59.33942715,75,3,2,3456,2017-10-25,5300000,6400000,1071.16200973575
Birger Jarlsgatan 82,Östermalm,18.06357265,59.34460249,72,2,2,2265,2017-10-25,6950000,6950000,1071.97553846349
Tomtebogatan 38,Vasastan,18.02877903,59.34208057,92,3,1,3680,2017-10-25,7750000,8250000,1069.86525777699
Bergsundsgatan 14,Södermalm,18.02871249,59.31699692,42,2,3,2861,2017-10-25,3495000,3225000,1069.4090832409
Atlasgatan 1,Vasastan,18.03974082,59.33792054,67,2.5,3.5,2952,2017-10-25,5490000,5775000,1070.44070733935
Scheelegatan 28,Kungsholmen,18.04524139,59.33236435,78,3,4,3064,2017-10-25,6895000,6900000,1070.66683693518
Kristallvägen 6,Älvsjö,17.99876294,59.29095939,65,2,2,3900,2017-10-25,2495000,2920000,1067.16392254578
Ernst Ahlgrens väg 8,Kungsholmen,18.00313791,59.33049524,19.5,1,0.5,1202,2017-10-25,1900000,2100000,1068.13508807432
Rörstrandsgatan 48,Vasastan,18.02758743,59.34133229,76,3,4,4357,2017-10-25,5950000,7470000,1069.78105607066
Västgötagränd 1A,Södermalm,18.07018161,59.31403137,34,1,2,2532,2017-10-25,2800000,3170000,1071.81531887714
Bergsgatan 30,Kungsholmen,18.04503059,59.32979965,86,3,1,4143,2017-10-25,6500000,6300000,1070.60804958282
Karlbergsvägen 50,Vasastan,18.03694916,59.34270477,90,3.5,1,3273,2017-10-25,7495000,7600000,1070.36134895338
Kirunagatan 25B,Vällingby,17.86190033,59.3649826,47,2,0,3376,2017-10-25,1950000,1950000,1060.37140229338
Fredsborgsgatan 6,Hägersten-Liljeholmen,18.02746391,59.30675125,68,3,1,3614,2017-10-25,4100000,4000000,1069.15031777872
Fredriksdalsgatan 16,Hammarby Sjöstad,18.0841,59.3026,99,4,3,4977,2017-10-25,6495000,6500000,1072.43414866
Fyrskeppsvägen 31,Kärrtorp,18.10348033,59.28852516,53,2,1,3236,2017-10-25,2650000,2530000,1073.32864902877
Hanna Paulis gata 35,Fruängen,17.96164279,59.28742149,55,2,3,3024,2017-10-25,2295000,2500000,1064.89948674355
Björketorpsvägen 11,Norra Ängby,17.88937926,59.35547033,48,2,3,3172,2017-10-25,1975000,2040000,1061.83251988905
Dartanjangs gata 16C,Annedal,17.94580283,59.36273385,83.5,3,1,3467,2017-10-25,3795000,3895000,1065.31191712187
Duvedsvägen 17,Vällingby Centrum,17.87422375,59.36551399,35,2,3,2316,2017-10-25,1695000,1800000,1061.11248009102
Emils gata 11A,Bromma,17.94864,59.3628,80.5,3,5,4831,2017-10-25,3895000,4200000,1065.481526592
Timmermansgatan 12,Södermalm,18.05958152,59.31889854,102,3,0,2909,2017-10-25,6750000,6750000,1071.27448385974
Filipstadsbacken 64,Farsta,18.1056833,59.23791948,124,5,6,7327,2017-10-25,3450000,3500000,1072.54300945578
Fågelsångsvägen 5,Gröndal,18.00658815,59.3144993,64.5,2,1,3008,2017-10-24,3495000,3700000,1068.05176021856
Stureparken 9,Östermalm,18.07717689,59.34314475,93,3,2,3972,2017-10-24,10950000,11400000,1072.75652485462
Etsarvägen 1,Johanneshov,18.0757741,59.29788338,64,2,6,2447,2017-10-24,3495000,3800000,1071.85514458502
Lysviksgatan 33,Farsta Centrum,18.09486612,59.24649767,64,2,2,3263,2017-10-24,1995000,2600000,1072.05744341754
Ekholmsvägen 303,Skärholmen,17.9051884,59.28069331,38,1,4,1845,2017-10-24,1790000,1790000,1061.43198219817
Sandfjärdsgatan 94,Årsta,18.05034,59.29318,96.5,4,12,5414,2017-10-24,4575000,5225000,1070.2620586812
Paternostervägen 82,Hammarbyhöjden,18.10538,59.29096,56,3,3,3635,2017-10-24,2495000,2850000,1073.4853613648
Skagafjordsgatan 14,Kista,17.9399,59.4085,94,4,0,5510,2017-10-24,2495000,3300000,1065.78254915
Boråsvägen 25,Hammarbyhöjden,18.10096264,59.2931861,59,2,3,3680,2017-10-24,3495000,3500000,1073.26374640267
Kommendörsgatan 32,Östermalm,18.08431149,59.33766538,55,2,1,2573,2017-10-24,5200000,5320000,1073.08082382131
P O Hallmans gata 15,Kungsholmen,18.0416,59.3351,87.5,3,2,4429,2017-10-24,5995000,5800000,1070.50014016
Tre Liljor 3,Vasastan,18.04561257,59.34727739,64,3,3,2166,2017-10-24,5100000,5750000,1070.95797486426
Borrvägen 18,Telefonplan,17.99708605,59.29339977,53.5,2,1,3375,2017-10-24,2295000,2750000,1067.10841785774
Ringdansvägen 5B,Hägersten-Liljeholmen,18.00680695,59.30245282,58,2,1,3304,2017-10-24,3995000,4050000,1067.84781959122
Upplandsgatan 54F,Vasastan,18.04886341,59.34342087,74,3,0,2896,2017-10-24,6995000,7100000,1071.08129756477
Borgarfjordsgatan 21A,Kista,17.94174291,59.40503992,52,2,5,3165,2017-10-24,2495000,2440000,1065.82995380293
Bråvallagatan 8,Vasastan,18.0349521,59.3386863,28,1,1,2128,2017-10-24,2495000,2900000,1070.17036509743
Svarvargatan 3,Kungsholmen Fridhemsplan,18.02554464,59.3369671,96,3,6,4198,2017-10-24,8895000,8400000,1069.58114926326
Karlavägen 18,Östermalm,18.06765239,59.34294209,81,2,5,4220,2017-10-24,6450000,6500000,1072.18764948202
Björnsonsgatan 325,Blackeberg,17.88269341,59.35033128,35,2,2,2755,2017-10-24,1975000,1975000,1061.34377806217
Dalagatan 36A,Vasastan,18.04759741,59.34054872,25,1,1,647,2017-10-24,2490000,2850000,1070.95433338705
Sankt Göransgatan 100,Kungsholmen,18.02564621,59.33431668,67,3,6,3370,2017-10-24,4995000,5185000,1069.53940058578
Helsingörsgatan 18,Kista,17.94146776,59.40080205,51.5,2,2,3228,2017-10-24,2000000,1960000,1065.73757489822
Kammakargatan 64B,Centrum Norrmalm Vasastan,18.05320179,59.33709472,70,3,3,3605,2017-10-24,5975000,5875000,1071.2245446125
Lignagatan 5,Södermalm-Högalid,18.03733709,59.31550154,63,2,4,2362,2017-10-24,3650000,3850000,1069.89369593939
Slätbaksvägen 19,Årsta,18.0611,59.296,55.5,3,1,4259,2017-10-24,2850000,3050000,1070.9509856
Eknäsvägen 8B,Stora Essingen,17.9894282,59.3240885,89,4,2,5544,2017-10-24,7495000,7500000,1067.2064306012
Vickergatan 7,Södermalm,18.06610465,59.30733446,41,2,2,2307,2017-10-24,2950000,3200000,1071.45251086691
Margaretha Krooks gata 4,Örnsberg,17.98504829,59.3070223,99,5,4,5137,2017-10-24,6500000,6400000,1066.63966000161
Vedevågslingan 22,Hagsätra,18.0175052,59.25788407,87.5,4,1,4679,2017-10-24,1995000,2450000,1067.67923437222
Knäredsgränd 14,Östberga,18.03480302,59.28591146,83,3,0,4478,2017-10-24,2050000,2575000,1069.20973504226
Grev Magnigatan 16,Östermalm,18.08788977,59.33370566,231,7,5,8012,2017-10-24,26000000,27000000,1073.22152762371
Adventsvägen 3,Midsommarkransen,18.00727916,59.30101555,52,2,0,2879,2017-10-24,2995000,3250000,1067.84994148035
Harpsundsvägen 27,Enskede-Årsta-Vantör,18.04545023,59.26338955,57,2,1,2850,2017-10-24,1995000,2350000,1069.43454658563
Torneågatan 35,Akalla,17.90937513,59.41360202,65,2,1,3718,2017-10-24,1895000,2100000,1064.06048640071
Polhemsgatan 18B,Kungsholmen,18.0361566,59.329287,53,2,4,3268,2017-10-24,4495000,5110000,1070.07231129834
Älvsjö Stationsgata,Älvsjö,18.0079703,59.2783499,44,2,5,3128,2017-10-24,2895000,2950000,1067.48276443221
Aprikosgatan 25,Hässelby Strand,17.83842375,59.35988116,73,3,4,4293,2017-10-24,2350000,2550000,1058.88671388172
Askängsbacken 56,Bromma,17.95851684,59.36123096,82,3,0,4892,2017-10-24,4795000,5300000,1066.03966583829
Torsgatan 61,Vasastan,18.03565,59.34338,102,4,1.5,3885,2017-10-24,8150000,8400000,1070.296431497
Warfvinges väg 18,Kungsholmen,18.01447487,59.33653259,53.5,2,10,3473,2017-10-24,4250000,4220000,1068.91647521549
Kungsklippan 20,Kungsholmen,18.04720631,59.33048059,32.5,2,7,2427,2017-10-24,2875000,3270000,1070.74942367918
Bo Bergmans gata 7,Östermalm,18.08798796,59.34391668,95,4,5,3269,2017-10-24,7995000,8500000,1073.41205040708
Linnégatan 48B,Östermalm,18.08398207,59.33638633,71,2,2,1469,2017-10-24,6950000,6000000,1073.03814649031
Storforsplan 3,Farsta,18.09173129,59.24130833,73,3,2,4115,2017-10-24,2295000,2915000,1071.7778315744
Hammarby Allé 149,Hammarby Sjöstad,18.10099427,59.30295503,50,2,2,3375,2017-10-24,2995000,3275000,1073.4424491921
Bäverdammsgränd 142,Bandhagen,18.03386879,59.25118256,99,4,0,5896,2017-10-24,2250000,2117000,1068.52805193938
Ludvigsbergsgatan 15,Maria,18.05536775,59.31960948,81,3,5,2364,2017-10-24,6850000,7000000,1071.03736394779
Repslagargatan 9,Södermalm,18.07029374,59.31818354,39,2,1,2472,2017-10-24,3250000,3600000,1071.89700069103
Atterbomsvägen 28,Kungsholmen,18.01012,59.32699,35,2,3,1885,2017-10-24,2495000,2980000,1068.4862091388
Bäckvägen 161,Hägerstensåsen,17.98355668,59.30049049,54,2,2,2165,2017-10-24,2795000,3200000,1066.43373187872
Bäckvägen 149,Hägerstensåsen,17.98486744,59.30094449,26,1,0,1143,2017-10-24,2100000,2000000,1066.51962571945
Alingsåsvägen 56,Hammarbyhöjden,18.10627341,59.29348195,54,2,2,3278,2017-10-24,2775000,3200000,1073.5839956176
Svartviksslingan 15,Minneberg,17.98969761,59.34013175,61.5,2,2,3577,2017-10-24,3195000,2995000,1067.51102632006
Nybohovsbacken 35C,Liljeholmen,18.02427292,59.30907042,36,1,2,2640,2017-10-24,2495000,2920000,1069.00287188158
Hallandsgatan 50B,Södermalm,18.07194434,59.31100566,38,2,2,2171,2017-10-23,2995000,3550000,1071.86519303695
Bråvallagatan 9A,Birkastan,18.03463935,59.33895798,46,2,2.5,2570,2017-10-23,4100000,4150000,1070.1567065741
Tjärhovsgatan 22,Södermalm,18.07746229,59.31526971,18,1,5,2145,2017-10-23,1995000,1950000,1072.2695514037
Ringvägen 147,Södermalm,18.08232853,59.30902584,74,3,1,2006,2017-10-23,5500000,5700000,1072.44529003314
Sågverksgatan 94,Stureby,18.04499726,59.28025874,61,3,3,4260,2017-10-23,2800000,2800000,1069.71210653539
Nybohovsbacken 35C,Hägersten-Liljeholmen,18.02427292,59.30907042,36,1.5,4,2640,2017-10-23,2995000,3200000,1069.00287188158
Vinggatan 14,Skarpnäck,18.12346101,59.26923607,110.5,5,4,6281,2017-10-23,3995000,3995000,1074.16368900713
Sjöviksvägen 39,Hägersten-Liljeholmen,18.03011303,59.30706151,65.5,2,5,3219,2017-10-23,3995000,4350000,1069.31302250246
Robert Almströmsgatan 12,Vasastan,18.03375215,59.33921039,21,1,1,1205,2017-10-23,2750000,2750000,1070.10861294996
Byggmästarvägen 5,Abrahamsberg,17.95138121,59.33356701,51,2,1,3357,2017-10-23,2650000,2600000,1065.11947994559
Kocksgatan 36,Södermalm,18.08041,59.31427,30,2,2,1777,2017-10-23,2395000,2925000,1072.4263204507
Hägerstensvägen 99A,Hägersten,18.00721597,59.30546555,85,4,6,5600,2017-10-23,4995000,5520000,1067.92632636025
Vivstavarvsvägen 157,Stureby,18.04722585,59.28346214,62,2.5,2,3695,2017-10-23,2100000,2195000,1069.9020304105
Wargentinsgatan 1,Kungsholmen,18.04044125,59.33228542,38,1,4,1706,2017-10-23,3195000,3480000,1070.38060934774
Kungsholms Strand 143,Fastighetsbyrån Kungsholmen,18.03030161,59.3374036,60,2,6,2555,2017-10-23,4950000,5230000,1069.8712836623
Fruängstorget 15,Fruängen,17.96438838,59.28643315,63,2,1,3546,2017-10-23,3000000,2795000,1065.04451077151
Skeppstavägen 23,Bandhagen,18.05718803,59.26727295,70,3,2,4152,2017-10-23,2545000,2710000,1070.20029168348
Fridhemsgatan 64,Kungsholmen,18.03205132,59.33622088,74.1,3,5,4933,2017-10-23,8000000,7400000,1069.95378004302
Lill-Jans Plan 4,Östermalm,18.0734539,59.34424145,46,2,0,1500,2017-10-23,4700000,4700000,1072.55541207704
Birkagatan 21B,Vasastan,18.03419379,59.34061094,70,2,2,2019,2017-10-23,6750000,6550000,1070.16007730895
Astri Taubes Torg 8,Enskede,18.10940148,59.28030265,101,4,2,5231,2017-10-23,5550000,5550000,1073.53080054476
Nynäsvägen 338,Enskede,18.0897938,59.28335099,33,2,3,1970,2017-10-23,2700000,2500000,1072.42359518213
Jaktvarvsplan 3,Kungsholmen,18.03501313,59.32929616,46,2,4,2572,2017-10-23,3995000,4300000,1070.00463523926
Ågesta Broväg 34,Farsta,18.10347027,59.24149675,82,3,2,5074,2017-10-23,2895000,2895000,1072.47667516393
Njurundagatan 4,Vällingby,17.88836,59.36082,51.5,2,2,3160,2017-10-23,1895000,2250000,1061.8677180552
Sofielundsplan 51,Blåsut,18.08931083,59.28956591,57,3,4,2350,2017-10-23,0,3350000,1072.50738672176
Norrtullsgatan 9,Vasastan,18.05184603,59.34179061,86,4,6,2722,2017-10-23,8000000,9250000,1071.22886723622
Grevgatan 50,Östermalm,18.08677691,59.33636506,71,3,0,1124,2017-10-23,6600000,6050000,1073.20359749054
Kungsklippan 11,Kungsholmen,18.04711,59.33003,23,1,1,1663,2017-10-22,2175000,2225000,1070.7355777133
Drevergatan 1,Norra Djurgårdsstaden,18.09233,59.35928,102.5,3.5,2,5063,2017-10-22,7600000,7600000,1073.9476823224
Råggatan 12,Södermalm Katarina,18.06762815,59.30678682,34,2,1.5,2011,2017-10-22,2650000,2950000,1071.53297103508
Pipersgatan 45A,Kungsholmen,18.04688,59.33375,105,4,2,4709,2017-10-22,9300000,9600000,1070.7890662
Nynäsvägen 361,Gamla Enskede,18.09195042,59.28103782,40,2,1,2220,2017-10-22,2800000,2535000,1072.50959708559
Bjursätragatan 96,Enskede-Årsta-Vantör,18.02588841,59.25280195,59,2,2,3406,2017-10-22,2400000,2020000,1068.08439593053
Kungsholms Kyrkoplan 4,Kungsholmen,18.04926885,59.32943092,48,2,1,2257,2017-10-22,3995000,4150000,1070.85284939258
Farstavägen 177,Farsta Centrum,18.09447289,59.24063152,76,3,0,5452,2017-10-22,2490000,2825000,1071.92800102512
Bäckvägen 120,Hägerstensåsen,17.98538089,59.30137019,25,1,2,2076,2017-10-22,1850000,1950000,1066.55773016604
Helgagatan 36P,Södermalm,18.06987852,59.30890613,114,4,3,6575,2017-10-22,8495000,9250000,1071.70472892318
Sjöbjörnsvägen 15F,Gröndal,18.00755672,59.31684007,54,2,1,3425,2017-10-22,2895000,3300000,1068.15136201169
Wittstocksgatan 21,Östermalm,18.09733978,59.33841852,58,2,4,2944,2017-10-22,5195000,5450000,1073.86752196428
Stångjärnsvägen 6,Johannesfred,17.97116095,59.34634058,46,2,2,2401,2017-10-21,2650000,2450000,1066.5226383567
Kastrupgatan 6,Kista,17.93900267,59.40263326,100,4,4,5782,2017-10-21,2995000,3200000,1065.62399665617
Krukmakargatan 48,Södermalm,18.049,59.3165,69,2,4,3848,2017-10-21,3995000,4250000,1070.6035085
Sveavägen 136,Vasastan,18.0541497,59.34585177,44,2,2,2333,2017-10-21,3950000,3950000,1071.43889192959
Flintbacken 4,Södermalm,18.05044885,59.3105529,33.5,2,12,1461,2017-10-21,2850000,2675000,1070.58210138667
Klubbacken 25,Hägersten-Liljeholmen,17.9612061,59.30504369,34.6,2,3,2742,2017-10-21,2195000,2650000,1065.19011248559
Klubbacken 39,Hägersten-Liljeholmen,17.96186633,59.30536116,48,2,1,2597,2017-10-21,2995000,3200000,1065.23496980829
Kumminvägen 14,Farsta stadsdelsområde,18.0852048,59.2536049,87,4,1,4851,2017-10-21,2995000,3150000,1071.61357975478
Ölmevägen 12,Farsta Centrum,18.08410764,59.24269051,60.5,2,3,3413,2017-10-21,2450000,2400000,1071.35119206605
Skebokvarnsvägen 366,Högdalen,18.0397915,59.262002,92.5,4,0,6266,2017-10-21,2795000,2850000,1069.07415995258
Bondegatan 1B,Södermalm,18.07514614,59.31244184,65,3,3,2797,2017-10-21,4975000,5100000,1072.08105417825
Gästrikegatan 5,Vasastan,18.03995848,59.34087151,84,3,2,2093,2017-10-21,8800000,8600000,1070.50685820741
Stöttingsgränd 10,Västertorp,17.96390176,59.29079734,72,3,3,3935,2017-10-21,3195000,3600000,1065.09405868783
Surbrunnsgatan 3,Vasastan,18.06150198,59.34642954,71,3,4,3536,2017-10-21,4995000,5400000,1071.88565464264
Olof Palmes gata 14,Centrum,18.06074877,59.33622234,43,2,2,2118,2017-10-21,3950000,3950000,1071.6566046436
Frövigatan 10,Hagsätra,18.01798582,59.26517879,74,3,1.5,3805,2017-10-21,2100000,2400000,1067.83915105798
Sankt Göransgatan 153,Kungsholmen,18.01438,59.33804,22.5,1,5,1427,2017-10-21,1895000,2510000,1068.9380010152
Täppgränd 14,Enskededalen,18.09915995,59.28640131,97,4,2,5310,2017-10-21,3995000,4230000,1073.03406016958
Heleneborgsgatan 25B,Södermalm,18.03319098,59.31871542,58,2,3,3023,2017-10-21,4450000,5150000,1069.70572385713
Thunbergsgatan 20,Skärmarbrink,18.09421819,59.29566583,41,2,1,3163,2017-10-21,1995000,2350000,1072.90871524935
Rutger Fuchsgatan 9,Södermalm,18.07844713,59.30689755,31,1.5,5,1911,2017-10-21,2450000,2580000,1072.176611802
Karlavägen 84,Östermalm,18.09192362,59.33706076,73,2,3,2077,2017-10-20,6500000,6575000,1073.52157110522
Larsbodavägen 72,Farsta Centrum,18.09739997,59.24480971,70.5,3,3,4051,2017-10-20,2395000,2620000,1072.17701746841
Norrtullsgatan 38,Vasastan,18.04480171,59.34967422,29,1,1,1593,2017-10-20,2195000,2700000,1070.953102853
Lina Sandells Plan 15,Hägersten,17.96164513,59.28451157,66,3,2,4443,2017-10-20,2725000,2980000,1064.84735852572
Skagafjordsgatan 3,Kista,17.93877985,59.40777314,53,2,6,2664,2017-10-20,2395000,2600000,1065.7029637372
Borgågatan 2,Akalla,17.92292792,59.4142629,41,2,1,2583,2017-10-20,1695000,1700000,1064.87755137663
Tångvägen 26,Hökmossen-Telefonplan,17.99577962,59.29315566,42.5,2,3,3009,2017-10-20,2195000,2475000,1067.02656223172
Upplandsgatan 39,Vasastan,18.05029163,59.34067394,40,2,1,1818,2017-10-20,3695000,3695000,1071.11647013774
Krukmakargatan 6,Södermalm,18.05906,59.31779,81,3,3,3503,2017-10-20,5495000,5495000,1071.2235286774
Årstavägen 71,Årsta,18.04866,59.29757,48.5,2,3,3105,2017-10-20,2475000,2725000,1070.2416797562
Färgargårdstorget 92,Södermalm,18.09305,59.30827,107.5,4,1,4175,2017-10-20,6495000,6495000,1073.0674945235
Ernst Ahlgrens väg 4,Kungsholmen,18.00439,59.33087,41,2,1.5,2304,2017-10-20,3095000,3725000,1068.2161225193
Midsommarvägen 31,Midsommarkransen,18.00959587,59.300932,48,2,1,2345,2017-10-20,2495000,3050000,1067.98582003435
Plåtslagarvägen 10,Bromma,17.95066237,59.33662579,56,2,3,3350,2017-10-20,2450000,2630000,1065.13173573132
Jaktvarvsplan 3,Kungsholmen,18.03501313,59.32929616,37,2,1,2001,2017-10-20,2995000,3445000,1070.00463523926
Bäckvägen 105,Telefonplan,17.99188256,59.30129898,45,2,3,4000,2017-10-20,2195000,2600000,1066.94200690361
Sara Lidmans gata 6,Kungsholmen,18.00302376,59.33852502,84,3,1,3855,2017-10-20,5390000,5650000,1068.27287581841
Ljusstöparbacken 11B,Hägersten-Liljeholmen,18.0098,59.3146,57.5,2,0,2835,2017-10-20,2995000,2995000,1068.24408308
Västertorpsvägen 20C,Västertorp,17.97387958,59.29098362,38,1,0,1794,2017-10-20,2100000,2100000,1065.68899976563
Odd Fellowvägen 30,Bredäng-Mälarhöjden,17.93742299,59.29740439,79,4,1,3941,2017-10-20,2695000,2925000,1063.64262475251
Bergsundsgatan 16,Södermalm,18.02878504,59.3168245,43,2,4,2210,2017-10-20,2995000,3400000,1069.41027816591
Värtavägen 28,Nedre Gärdet,18.09675634,59.3412396,85,3,4,2666,2017-10-20,7195000,7900000,1073.88395395476
Nyborgsgränd 1,Hägersten-Liljeholmen,18.01181065,59.30319982,39,2,1,2930,2017-10-20,2495000,3010000,1068.15800609695
Katarina Bangata 25,Katarina,18.07909727,59.31172073,28,1,2,1413,2017-10-20,2595000,3185000,1072.30236832875
Franzéngatan 80,Kungsholmen-Hornsbergs Strand,18.00488256,59.33880343,88,3,3,4958,2017-10-20,6495000,6450000,1068.38818700808
Eriksbergsgatan 16,Östermalm,18.06863215,59.34132292,150,4,2,5357,2017-10-20,12900000,13250000,1072.21653513584
Själlandsgatan 126,Kista,17.9391396,59.39874854,78,3,1,3200,2017-10-20,2495000,3225000,1065.56244212436
Wargentinsgatan 5E,Kungsholmen,18.03942204,59.33287204,30,1,4,1750,2017-10-20,2495000,2900000,1070.33071957488
Industrigatan 12,Kungsholmen,18.02954078,59.33721672,81,3,0.5,2633,2017-10-20,6000000,5930000,1069.82276862494
Rålambsvägen 48,Fredhäll,18.00506,59.33013,35,2,0,1892,2017-10-20,2695000,2850000,1068.2425504578
Skeppargatan 45,Östermalm,18.0847621,59.33646164,59,2,2,1297,2017-10-20,5950000,6200000,1073.08579261518
Hornsgatan 51,Södermalm,18.0567582,59.31804894,206,6,3,5822,2017-10-20,16250000,16000000,1071.09166660535
Fogdevägen 47,Bagarmossen,18.12596083,59.27784249,62.5,3,0,4265,2017-10-20,3100000,3150000,1074.46785106065
Björketorpsvägen 13,Bromma Norra Ängby,17.88985713,59.35526846,48,2,2,3172,2017-10-20,1995000,2075000,1061.8572726622
Holbergsgatan 106,Bromma,17.8812,59.3459,69,3,3,3756,2017-10-20,2790000,2825000,1061.17590708
Ullvidevägen 21,Vällingby,17.8587,59.3768,89,4,1,4255,2017-10-20,2300000,2540000,1060.39245816
Vantörsvägen 273,Fruängen,17.95453412,59.28602143,106.5,5,1,4684,2017-10-20,4650000,4650000,1064.45289460399
Storgatan 32,Östermalm,18.08751435,59.3341054,45,2,1,2972,2017-10-20,5000000,5000000,1073.20648286691
Vadmalsvägen 25,Riksby,17.94237,59.33972,65.5,3,1,3454,2017-10-20,2995000,3600000,1064.6952119364
Årstavägen 57,Årsta,18.05038253,59.29702128,47.5,2,2,2962,2017-10-20,2475000,2780000,1070.33391699355
Hägerstensvägen 105,Aspudden,18.00581,59.30554,31,1,4,1543,2017-10-20,2495000,2800000,1067.8442851874
Eklångsvägen 7,Årsta,18.05947,59.29767,55,3,1,3189,2017-10-20,2875000,3100000,1070.8844924349
Alvägen 2,Spånga,17.9237175,59.37602234,59,2,0,3420,2017-10-20,1995000,2325000,1064.23905069585
Birger Jarlsgatan 99C,Vasastan,18.06011997,59.34727739,34,2,2,1410,2017-10-20,2995000,3500000,1071.81894955627
Heleneborgsgatan 9C,Södermalm,18.03785563,59.31871241,28,1,1,1551,2017-10-20,2495000,3125000,1069.98237060907
Södermannagatan 34,Södermalm,18.08082461,59.31219711,79,3,4,4176,2017-10-20,6195000,6680000,1072.41343317966
Rorgängargatan 11,Hammarby Sjöstad,18.1093546,59.30657324,97.5,4,3,4646,2017-10-20,6850000,7330000,1074.00376491403
Tallbacksvägen 24,Ulvsunda,17.96307564,59.34383116,49.5,2,1,3193,2017-10-20,2800000,2620000,1065.99772789447
Stjärnsundsgatan 11,Ormkärr,18.00440128,59.26162608,59.5,3,2,3066,2017-10-20,1995000,2350000,1066.97009644963
Grafikvägen 15,Johanneshov,18.07770233,59.29731087,46,2,3,2252,2017-10-20,2950000,2975000,1071.95913487733
Norrtullsgatan 53,Vasastan,18.04641796,59.3472812,101,3,4,3079,2017-10-20,8990000,9000000,1071.00584132485
Handelsvägen 22,Gamla Enskede,18.08286309,59.28341083,65,3,2,2878,2017-10-20,4950000,5575000,1072.01380154711
Hornsgatan 150B,Södermalm,18.0381,59.3159,84,4,4,3627,2017-10-20,5195000,5100000,1069.94613579
Ågesta Broväg 65,Farsta,18.10061932,59.23829424,79.5,3,2,4925,2017-10-20,2995000,3480000,1072.24981320439
Industrigatan 5,Kungsholmen,18.03074241,59.33641786,36,1,1.5,1126,2017-10-20,2995000,3100000,1069.87966596578
Hildebergsvägen 8,Liljeholmskajen,18.027831,59.30307433,90.5,4,1,5676,2017-10-20,5100000,5100000,1069.10580180168
Norrtullsgatan 23,Vasastan,18.04975238,59.34369146,48,2,3,276,2017-10-20,3990000,4400000,1071.13893616812
Norra Stationsgatan 117,Vasastan,18.02852924,59.34382693,63,2,4,3674,2017-10-20,4795000,4795000,1069.881919021
Ågesta Broväg 82,Farsta,18.09932754,59.23801373,68,3,4,3786,2017-10-20,2750000,3350000,1072.16821331829
Hälsingegatan 14F,Vasastan,18.04155707,59.34444385,74,3,3,2427,2017-10-20,7495000,7850000,1070.66617050719
Blekholmsterrassen 9,Norrmalm,18.05188596,59.33134614,61,2,4,4694,2017-10-20,4850000,5200000,1071.04269437257
Döbelnsgatan 95,Vasastan,18.05560899,59.34638334,67,2,5,1507,2017-10-20,5750000,5750000,1071.53509255769
Nybohovsgränd 12,Liljeholmen,18.01782484,59.30852474,79,4,4,3164,2017-10-20,3945000,3945000,1068.61061028413
Fleminggatan 73,Kungsholmen Fridhemsplan,18.03462,59.33407,40.5,2,5,2574,2017-10-20,3500000,3490000,1070.0674055034
Knypplerskevägen 11,Bromma Åkeshov,17.93078377,59.33970472,42,2,1,3384,2017-10-20,2095000,2405000,1064.00741430997
Midsommarvägen 9,Midsommarkransen,18.01229254,59.30053812,42,2,2,3109,2017-10-20,2350000,2775000,1068.13864039686
Valhallavägen 69,Östermalm,18.06964363,59.3464456,40,2,5,2327,2017-10-20,3175000,3400000,1072.36912269918
Filipstadsbacken 40,Farsta,18.10423317,59.23911107,36,1,6,1898,2017-10-20,1695000,2145000,1072.47867959481
Tjustgatan 2,Södermalm Katarina,18.07017088,59.31223544,40,2,2,3401,2017-10-20,3250000,3400000,1071.78222967559
Pipersgatan 27,Kungsholmen,18.04615569,59.3317922,74,2,2,3944,2017-10-20,6595000,6595000,1070.71075940793
Upplandsgatan 48,Vasastan,18.04935438,59.34194635,37,2,2,1540,2017-10-20,3395000,4000000,1071.0838192701
Tomtebobarnens gata 11,Bromma,17.95185482,59.36330786,55,2,4,3288,2017-10-20,2995000,3075000,1065.68148433769
Kolbäcksgränd 24,Bagarmossen,18.14023353,59.2767091,26,1,3,1960,2017-10-20,1895000,2010000,1075.29334596388
Rörstrandsgatan 38,Vasastan,18.02862343,59.34104533,99,4,4,3196,2017-10-20,9600000,9950000,1069.83736019713
Bjulevägen 59,Stureby,18.04397316,59.27936049,48.5,2,2,3038,2017-10-20,2195000,2400000,1069.63518962352
Handelsvägen 28,Enskede,18.08161855,59.28314778,44,2,1,2201,2017-10-20,2495000,3150000,1071.93526460124
Bergsunds Strand 36,Södermalm,18.03181928,59.31520073,68,3,3,3142,2017-10-20,5490000,5000000,1069.56098012028
Brattforsgatan 3,Farsta,18.10095,59.23795,79.5,3,3,4925,2017-10-20,2990000,3460000,1072.2631710525
Strindbergsgatan 44,Gärdet,18.090469,59.3421072,50,2,2,2837,2017-10-20,3975000,4100000,1073.52655069628
Gröndalsvägen 17,Gröndal,18.01447764,59.31545813,43,2,2,2671,2017-10-20,2495000,3100000,1068.53699418924
Bennebolsgatan 10,Spånga Solhem,17.89307452,59.38459119,86.5,3,3,5177,2017-10-20,2990000,3100000,1062.57291550241
Tappvägen 24,Bromma,17.95129249,59.36387384,40.5,2,1,2620,2017-10-19,2595000,2650000,1065.6582626413
Riksdalervägen 14,Hägerstensåsen,17.98525214,59.29753586,31,1,0,2043,2017-10-19,1995000,2175000,1066.48113372279
Finn Malmgrens väg 1A,Hammarbyhöjden,18.09806585,59.29533914,82,3,1,6735,2017-10-19,2495000,3150000,1073.1309523538
Hammarbybacken 43,Johanneshov,18.08712244,59.29874098,36,2,3,2586,2017-10-19,2295000,2500000,1072.54358864311
Hägervägen 3,Tallkrogen,18.08266746,59.27518736,26,1,2,1415,2017-10-19,1875000,2250000,1071.85350166008
Anna Sandströms gata 20,Hägersten,17.9666729,59.28759384,27,1,0,1226,2017-10-19,1750000,1880000,1065.20080555134
Byggmästarvägen 8,Bromma,17.9505,59.33322,56,2,2,3187,2017-10-19,2795000,3200000,1065.06096561
Gjörwellsgatan 15,Kungsholmen,18.0192649,59.3289575,74,3,5,4128,2017-10-19,4795000,4500000,1069.06420143334
Rorgängargatan 17A,Hammarby Sjöstad,18.10923778,59.30696727,85,3,1,4318,2017-10-19,4695000,4695000,1074.00397230311
Maria Bangata 9,Södermalm,18.05409,59.31389,59,2,6,2989,2017-10-19,4295000,4295000,1070.8583083101
Torsgatan 42,Vasastan,18.03829927,59.34088886,35,1,1,1879,2017-10-19,2995000,3050000,1070.40871220449
Arvid Mörnes väg 40,Bromma,17.8737,59.3484,33,1,2,2595,2017-10-19,1790000,2100000,1060.77549708
Mariehällsvägen 8,Bromma,17.9574,59.3597,78.5,3,4,5321,2017-10-19,3795000,4000000,1065.94587678
Bågljusvägen 7,Kungsholmen,18.02336097,59.33358889,82,3,5,4838,2017-10-19,5395000,5630000,1069.39069021005
Lundagatan 44B,Södermalm,18.0441146,59.31866293,47,2,4,2341,2017-10-19,4250000,4350000,1070.35275182769
Glädjevägen 8B,Hässelby Norra Villastad,17.804501,59.38208104,50,2,3,3238,2017-10-19,1695000,1905000,1057.26832125876
Sjövikstorget 7,Liljeholmskajen,18.03019708,59.30757764,79,3,4,3712,2017-10-19,5495000,5875000,1069.3273131866
Ringstedsgatan 39,Kista,17.94131431,59.3985098,81,3,2,4821,2017-10-19,2295000,2295000,1065.68733386742
Bäckvägen 149,Hägerstensåsen,17.98486744,59.30094449,38,2,1,1453,2017-10-19,2295000,2650000,1066.51962571945
Schlytersvägen 43,Aspudden,18.00512676,59.30631073,23,1,3,1760,2017-10-19,1895000,2225000,1067.8176423616
Hornsgatan 144B,Hornstull,18.03982192,59.3161593,69,3,2,2444,2017-10-19,4950000,5150000,1070.05295075035
Liljeholmsvägen 32,Liljeholmen,18.02405117,59.31190294,57,2,9,3559,2017-10-19,3850000,4300000,1069.04077358063
Heleneborgsgatan 20,Södermalm,18.03806557,59.31964663,62,2,1,3232,2017-10-19,5995000,6320000,1070.01167550117
Birger Jarlsgatan 103B,Vasastan,18.06005054,59.34800393,42,2,3,2117,2017-10-19,3375000,3900000,1071.82795042392
Saltsjöqvarns Kaj 35,Saltsjöqvarn,18.10848355,59.31444749,107,4,4,3003,2017-10-19,7350000,8260000,1074.09469665
Surbrunnsgatan 50,Vasastan,18.05388451,59.34457514,24,1,1,250,2017-10-19,2250000,2850000,1071.40010587258
Trålgränd 2,Sofia,18.08395591,59.30545562,89,3,3,3260,2017-10-19,5895000,6250000,1072.47724465454
Puckgränd 11,Västertorp,17.97367573,59.29006862,56.5,2,2,2906,2017-10-19,2295000,2700000,1065.66046738533
Gyllenstiernsgatan 17,Östermalm,18.10058675,59.3377355,87,3.5,2,4200,2017-10-19,6700000,7550000,1074.0478289663
Bjurholmsplan 17,Södermalm,18.08029426,59.30965811,27,1,3,1310,2017-10-19,2295000,2600000,1072.3360710888
Ringstedsgatan 61,Kista,17.94139266,59.39794021,76.5,3,1,4348,2017-10-19,1995000,2210000,1065.68176850281
Katarina Bangata 49,Södermalm,18.08529854,59.31022585,39,2,5,2111,2017-10-19,3150000,3400000,1072.64314097208
Kammakargatan 50,Centrum,18.05550456,59.33752312,44,2,2,2706,2017-10-19,3495000,3850000,1071.36891927227
Tjurbergsgatan 36,Södermalm,18.07229812,59.31055616,38,1,5,2298,2017-10-19,2995000,3500000,1071.87805258652
Nybohovsgränd 16,Liljeholmen,18.0185,59.3084,71,3,3,2777,2017-10-19,3795000,4025000,1068.6484054
Scheelegatan 3,Kungsholmen,18.04315567,59.32950097,143,5,3,3977,2017-10-19,12250000,13200000,1070.49142182513
Hägervägen 1,Enskede,18.08264732,59.2753067,26,1,2,1415,2017-10-19,1850000,2230000,1071.85446584093
Mölndalsbacken 54,Enskede,18.05923271,59.2689743,144,6,0,5582,2017-10-19,5950000,6000000,1070.35219936671
Hanna Paulis gata 13,Hägersten,17.9623661,59.28668976,57,2,2,3134,2017-10-19,2600000,2600000,1064.92922632624
Holbergsgatan 138,Bromma,17.8832,59.345,59,2,3,3290,2017-10-19,2490000,2490000,1061.278504
Åsögatan 106,Södermalm,18.07264866,59.31265594,70,2,2,3609,2017-10-19,5500000,4700000,1071.93679189508
Tobaksspinnargatan 10,Hornstull,18.0309,59.3174,37,2,5,2053,2017-10-19,0,3950000,1069.54610766
Helsingörsgatan 37,Kista,17.94318098,59.39907189,45,2,2,2978,2017-10-19,1895000,1900000,1065.8082969663
Lagavägen 22,Bagarmossen,18.1295664,59.27724119,79,3,2,5688,2017-10-19,2995000,3700000,1074.67068016292
Liljeholmsgränd 2,Hägersten-Liljeholmen,18.02373648,59.31134839,72,3,5,4230,2017-10-19,4795000,5250000,1069.01211365483
Multrågatan 25,Vällingby Råcksta,17.88369,59.35578,87.8,4,2,5029,2017-10-19,2475000,2405000,1061.5003692282
Marviksvägen 12,Årsta,18.06355,59.30022,64.5,2,3,3849,2017-10-19,3225000,3670000,1071.172488981
Åsögatan 128,Södermalm,18.07765,59.31331,57,2,2,2465,2017-10-19,4695000,5260000,1072.2452585215
Härjedalsgatan 7,Vällingby,17.87825,59.36522,74,3,1,3712,2017-10-19,2195000,2470000,1061.346244465
Birkagatan 26,Birkastan,18.03546309,59.34095357,85,3,3,3739,2017-10-19,8300000,9300000,1070.24157783714
Mörsilsgatan 14,Vällingby Centrum,17.87400938,59.36603819,41,1,3,2440,2017-10-19,1795000,1795000,1061.1091234615
Förskottsvägen 10,Hägerstensåsen,17.98399687,59.29833562,55,2,3,3140,2017-10-19,2295000,2600000,1066.42108218629
Västerled 20,Bromma Äppelviken,17.96944857,59.32874572,59,2,2,2965,2017-10-19,3495000,3950000,1066.10484493815
Essinge Brogata 18,Lilla Essingen,18.00506365,59.32510218,35,2,3,1984,2017-10-19,2475000,2710000,1068.15224079365
Vallfartsvägen 2,Aspudden,18.00099127,59.30538821,41.5,2,4,2605,2017-10-19,2450000,3225000,1067.55577543217
Torbjörn Klockares gata 13,Vasastan,18.03378403,59.34514902,39,1.5,0,2024,2017-10-19,3300000,2995000,1070.21760065485
Bordsvägen 25,Enskede,18.07726264,59.26441115,51,2,3,2701,2017-10-19,2195000,2560000,1071.33832556349
Bråvallagatan 8,Vasastan,18.0349521,59.3386863,27,1,3,1993,2017-10-19,2550000,3200000,1070.17036509743
Skeppargatan 68,Östermalm,18.08701955,59.33903727,125,4,2,4519,2017-10-19,15900000,15100000,1073.26632718067
Marieviksgatan 41,Liljeholmskajen,18.02845872,59.30865804,76,3,3,4313,2017-10-19,4995000,5100000,1069.24369321274
Holbergsgatan 90,Bromma,17.881,59.3464,49,2,5,3076,2017-10-19,2190000,2500000,1061.1729784
Folkungagatan 118,Södermalm,18.08563858,59.31544241,32,1,4,1062,2017-10-19,2490000,3050000,1072.75765364006
Kransbindarvägen 8,Midsommarkransen,18.00266418,59.30192068,71,4,3,3652,2017-10-19,3595000,4000000,1067.59256323104
Vikingagatan 3,Birkastan,18.03215861,59.34069644,24,1,1,1338,2017-10-19,2250000,2575000,1070.04085023394
Helgagatan 36P,Södermalm,18.06987852,59.30890613,99.5,4,2,5661,2017-10-19,6950000,7300000,1071.70472892318
Kallforsvägen 6,Bandhagen,18.04445386,59.27184015,57.5,2,1,3240,2017-10-19,1995000,2520000,1069.52798478397
Rödabergsbrinken 14,Vasastan,18.03739042,59.34488578,33.5,1,2,1691,2017-10-19,3350000,3150000,1070.42687424417
Abiskovägen 18,Vällingby Centrum,17.86523545,59.36610528,58,2,2,2997,2017-10-19,1995000,2450000,1060.58944857669
Tomtebogatan 15,Vasastan,18.03392015,59.34092075,61,2,1,2116,2017-10-19,4790000,4790000,1070.14942643298
Buteljgatan 30,Liljeholmskajen,18.02944109,59.30837188,78,3,1,3921,2017-10-19,5750000,5650000,1069.29679695427
Vingårdsgatan 5,Liljeholmskajen,18.03109646,59.30714278,78,3,7,4570,2017-10-19,5495000,5825000,1069.37281223317
Norrtullsgatan 47,Vasastan,18.047297,59.3464186,49,2,2,1225,2017-10-19,4750000,4650000,1071.04244236052
Axvallsvägen 47,Björkhagen,18.11488629,59.29417851,59,2,1,2642,2017-10-19,2850000,3350000,1074.10730136761
Margaretha Krooks gata 5,Aspudden,17.98490882,59.30723041,54,2,5,2798,2017-10-19,3195000,3750000,1066.63513129058
Breitenfeldsgatan 2,Östermalm,18.09516343,59.33883503,79,3,2,2219,2017-10-19,8750000,9250000,1073.74591761366
Primusgatan 86,Lilla Essingen,18.00405979,59.32239109,118,4,6,5557,2017-10-19,10750000,10750000,1068.04387607012
Pokalvägen 5,Södermalm,18.0212152,59.31860839,41,2,0,2221,2017-10-19,2695000,3275000,1068.99340716072
Beckomberga Allé 4,Bromma,17.90574074,59.35917237,52,2,0,3044,2017-10-19,2495000,2400000,1062.86995099819
Svartviksslingan 77,Minneberg,17.99194694,59.33909887,72,3,4,3837,2017-10-19,3795000,4500000,1067.62591833645
Erik Dahlbergsgatan 43,Gärdet,18.0927069,59.3445784,73,2,6,4038,2017-10-19,6495000,6500000,1073.70406309527
Svinningegränd 8,Spånga,17.9105,59.3898,95.5,4,0,6232,2017-10-19,1250000,1900000,1063.7010129
Katrinebergsbacken 18,Liljeholmen,18.02588224,59.3121533,59,2,2,3397,2017-10-19,3750000,3480000,1069.15389078663
Samaritgränd 9,Södermalm,18.05382219,59.31628462,42,1.5,0.5,2350,2017-10-19,2990000,3050000,1070.88565550091
Luntmakargatan 67,Vasastan,18.05995,59.34112,82,3,2,2880,2017-10-19,6750000,6800000,1071.697660144
Timmermansgatan 43,Södermalm,18.06242466,59.31428324,86,3,1,2206,2017-10-19,6850000,7500000,1071.3597722844
Mariehällsvägen 12,Bromma Mariehäll,17.95878382,59.35967376,91.7,4,3,4824,2017-10-19,4695000,5350000,1066.02754868157
Vegagatan 5,Vasastan,18.05100574,59.34133256,68,2,2,2703,2017-10-19,5750000,5705000,1071.17073465981
Rådmansgatan 10,Östermalm,18.07104309,59.34386317,95,3,4,3957,2017-10-19,10950000,10250000,1072.40550847213
Helsingforsgatan 15,Kista,17.92028904,59.41195217,75,3,2,4404,2017-10-19,1995000,2115000,1064.67935531706
Lützengatan 8,Östermalm,18.09231173,59.33804006,79,3,3,3076,2017-10-19,9250000,9725000,1073.56231821275
Blåsutvägen 7,Blåsut,18.0876573,59.29321088,55,2,4,2762,2017-10-19,2650000,3100000,1072.47527861407
Vindragarvägen 2,Södermalm Reimersholme,18.02034616,59.31814853,60.5,2,2,3325,2017-10-19,4475000,5310000,1068.9335700809
Birkagatan 26,Vasastan,18.03546309,59.34095357,85,3,3,3739,2017-10-19,8300000,9300000,1070.24157783714
Essinge Brogata 27,Kungsholmen Lilla Essingen,18.0050966,59.32467907,33,1,3,2132,2017-10-19,2295000,2345000,1068.14657741935
Cardellgatan 4,Östermalm,18.07596158,59.33872373,44,1.5,1,3654,2017-10-19,4250000,5000000,1072.60449034971
Dalagatan 29,Vasastan,18.04296,59.34407,74,3,4,3116,2017-10-19,6450000,6800000,1070.7426812472
Rönnapelvägen 24,Skarpnäck,18.11254,59.27092,143,6,0,2093,2017-10-19,6495000,8375000,1073.5469093368
Ullerudsbacken 75,Farsta,18.09556218,59.2324946,75.1,3,2,3446,2017-10-19,2750000,3300000,1071.84528911081
Saltsjöqvarns Kaj 31,Sicklaön,18.10909331,59.31442742,60,2,7,3992,2017-10-19,4475000,4631000,1074.130500778
Mandelbrödsvägen 2,Sköndal,18.1064669,59.25605443,71,3,2,4664,2017-10-19,2480000,2850000,1072.91778816139
Svartviksslingan 112,Minneberg,17.99092495,59.33844096,90.5,3,1,5019,2017-10-19,4975000,5200000,1067.55343796137
Eknäsvägen 1,Stora Essingen,17.99195721,59.32441536,124.9,6,1,5946,2017-10-19,7995000,8875000,1067.36234266539
Wollmar Yxkullsgatan 48A,Högalid,18.0537104,59.3157947,34,1.5,1,1853,2017-10-19,2650000,2975000,1070.87017965966
Ola Hanssonsgatan 9,Kungsholmen,18.00052,59.33425,33,2,0.5,1869,2017-10-19,2695000,2900000,1068.04735381
Nordenflychtsvägen 64,Kungsholmen,18.0095027,59.3382487,44,1,10,1329,2017-10-19,3550000,4000000,1068.65235017592
Ståltrådsvägen 13,Bromma Johannesfred,17.97321508,59.34601919,46,2,3,2346,2017-10-19,2195000,2400000,1066.63876704368
Stockholmsvägen 53,Enskede-Årsta-Vantör,18.0846219,59.28159182,58,3,3,2182,2017-10-19,3750000,4430000,1072.08517369483
Vibyholmsvägen 14,Älvsjö,18.0314,59.2796,87,4,1,4279,2017-10-18,2450000,3020000,1068.89417944
Stopvägen 112,Bromma,17.9412,59.3378,52,2,1,2980,2017-10-18,2595000,2700000,1064.59133736
Skebokvarnsvägen 306,Bandhagen,18.034,59.2627,38,1,0,2087,2017-10-18,1595000,1965000,1068.7435318
Stamgatan 22,Älvsjö,18.0402,59.283,69.5,3,3,4755,2017-10-18,2195000,2195000,1069.4771766
Essingetorget 39,Essingeöarna,17.9886,59.3202,68,3,0,2757,2017-10-18,4295000,4000000,1067.08734972
Svandammsvägen 17A,Midsommarkransen,18.01317675,59.30136198,42,2,5,2938,2017-10-18,2750000,3190000,1068.20591486147
Dukvägen 32,Bromma,17.94911742,59.33902775,39,1,3,2018,2017-10-18,2150000,2600000,1065.08317667339
Dukvägen 8,Bromma,17.9516,59.3385,51,2,3,2638,2017-10-18,2475000,2830000,1065.2210166
Zinkens väg 43,Södermalm,18.04515016,59.31540674,66,2,2,2867,2017-10-18,5000000,4550000,1070.35542142478
Döbelnsgatan 35,Vasastan,18.0615449,59.34094263,50,2,5,1633,2017-10-18,5495000,5900000,1071.78909972007
Liljeholmstorget 18,Liljeholmen,18.02478518,59.31022927,51.5,2,4,2539,2017-10-18,3495000,3495000,1069.0541415683
Folkungagatan 51,Södermalm,18.07474,59.31449,41,2,2,1782,2017-10-18,3195000,3500000,1072.0939849826
Hjovägen 1,Johanneshov,18.1103,59.29568,41,2,2,2381,2017-10-18,2395000,3020000,1073.862553504
Polhemsgatan 16,Kungsholmen,18.03611183,59.32919312,63,3,2,2060,2017-10-18,5195000,6075000,1070.06796189599
Linnégatan 51,Östermalm,18.08434,59.33648,27,1,2,534,2017-10-18,2695000,3110000,1073.0610787232
Sveavägen 121B,Vasastan,18.05161844,59.34717727,32,1,2,1463,2017-10-18,2750000,3350000,1071.31259956908
Fredhällsgatan 13,Kungsholmen,18.00139999,59.33003616,43,2,2,2015,2017-10-18,3095000,3800000,1068.02371233732
Färnebogatan 62,Farsta,18.0964,59.2461,77,3,3,4174,2017-10-18,2495000,2505000,1072.14112404
Brahegatan 12,Östermalm,18.07602028,59.3376691,26,1,0,1197,2017-10-18,3000000,3100000,1072.58891001953
Vintrosagatan 58,Hagsätra,18.02077477,59.25908564,80,3,8,5368,2017-10-18,1995000,2125000,1067.89463539458
Skedviksvägen 1,Årsta,18.04976862,59.29769637,56,2,5,2963,2017-10-18,2795000,3250000,1070.30969917751
Pontonjärgatan 33,Kungsholmen,18.03095753,59.32916108,23,1,3,1118,2017-10-18,1995000,2660000,1069.76158372401
Sankt Eriksgatan 40,Kungsholmen,18.03273797,59.33426743,29,2,1,334,2017-10-18,2650000,3470000,1069.9592972071
Vapengatan 14,Aspudden,17.99598059,59.30638839,44,2,1,2743,2017-10-18,2795000,2895000,1067.27661432944
Horisontvägen 16,Skarpnäck,18.12228647,59.26719644,31,1,3,2542,2017-10-18,1495000,1770000,1074.05711215944
Melongatan 16,Hässelby Strand,17.83513491,59.36518521,80,3,2,4109,2017-10-18,2495000,2730000,1058.78608717749
Fyrvaktarkroken 10,Skarpnäcks stadsdelsområde,18.09168731,59.28977053,64,3,4,3733,2017-10-18,3495000,4050000,1072.65198911041
Bondegatan 3B,Södermalm,18.07647871,59.31267006,26,1,2,1994,2017-10-18,2250000,2700000,1072.16421757284
Norra Agnegatan 32,Kungsholmen Rådhuset,18.04303765,59.33201836,83,4,5,2762,2017-10-18,7995000,8700000,1070.52984111997
Teknologgatan 7,Vasastan,18.05345535,59.3395311,31,2,0,1500,2017-10-18,2795000,3355000,1071.28357520379
Sehlstedtsgatan 3,Gärdet Östermalm,18.11148113,59.34217422,65,2,2,3334,2017-10-18,4475000,4650000,1074.7746685987
Glasmålarvägen 6,Enskede,18.08885799,59.28798313,67,3,0.5,3138,2017-10-18,3770000,3770000,1072.45190735209
Borensvägen 37,Årsta,18.05404094,59.29659,44,2,1,2961,2017-10-18,2275000,2610000,1070.54306346239
Maria Röhls väg 5,Sköndal,18.12194824,59.2607262,98,4,1,4961,2017-10-18,4395000,4935000,1073.91981286121
Norrbackagatan 44,Birkastan Vasastan,18.03141553,59.34180577,66,2,2,2984,2017-10-18,5675000,6000000,1070.01675813942
Glidflyktsgatan 3B,Skarpnäck,18.13113213,59.26804087,123.5,5,0,7404,2017-10-18,3750000,3750000,1074.59668010021
Falkholmsgränd 13,Skärholmen,17.89916798,59.27924821,83.5,3,3,5774,2017-10-18,1950000,1900000,1061.0492214389
Rindögatan 27,Gärdet,18.10014507,59.34560902,37.9,2,4,2343,2017-10-18,3195000,3500000,1074.1641325295
Stöttingsgränd 12,Västertorp,17.96413957,59.29081943,59,3,2,3224,2017-10-18,2495000,2600000,1065.10855546019
Sibyllegatan 51,Östermalm,18.0816921,59.3384383,67,2.5,2,3101,2017-10-18,6695000,6400000,1072.93937103545
Roslagsgatan 6,Vasastan,18.06204949,59.34461067,35,2,4.5,1225,2017-10-18,3150000,3760000,1071.88529488632
Skarabacken 47,Skarpnäcks stadsdelsområde,18.09916711,59.29250761,39,2,2,2657,2017-10-18,2350000,2910000,1073.14500360434
Strahlenbergsgatan 5,Hammarbyhöjden,18.09393,59.29927,56,3,3,2958,2017-10-18,3950000,3650000,1072.9568404311
Motalavägen 11,Hjorthagen,18.09518,59.35301,40,2,2,2314,2017-10-18,2795000,3060000,1074.0033994918
Siargatan 17,Södermalm,18.06915164,59.3116824,49,2,1,2589,2017-10-18,3495000,3650000,1071.71178330912
Hammarby Allé 40,Hammarby Sjöstad,18.09171719,59.30339655,80,3,5,4933,2017-10-18,4995000,4995000,1072.90027878902
Vivstavarvsvägen 155,Stureby,18.04687858,59.28357523,61,2,1,3616,2017-10-18,2295000,2295000,1069.88348396411
Gullmarsvägen 51,Årsta,18.06877774,59.29960356,81,4,3,4810,2017-10-18,4195000,5340000,1071.47135679575
Linnégatan 60,Östermalm,18.08720973,59.33570778,76,2,3,4428,2017-10-18,6950000,6900000,1073.21739109485
Marmorgatan 11,Södermalm,18.05342317,59.31066939,28,1,16,2178,2017-10-18,2600000,2400000,1070.76061299364
Sulitelmavägen 14A,Bromma Traneberg,17.97635794,59.33722766,41.5,2,3,2903,2017-10-18,2495000,2785000,1066.66724358343
Dagsverksvägen 243,Spånga,17.90532231,59.37762186,71,3,2,3747,2017-10-18,2395000,2350000,1063.1754574046
Johannesbergsgatan 3,Hägersten-Liljeholmen,18.01162443,59.30021487,45,2,0,3504,2017-10-18,2400000,2495000,1068.09319885674
Birkagatan 15,Vasastan,18.03462625,59.34015481,75,3,2,3125,2017-10-18,6500000,7300000,1070.17751361549
Nipfjällsvägen 10,Bromma Traneberg,17.97605753,59.33923018,62,2,2,2647,2017-10-18,3195000,3600000,1066.68541550159
Harpsundsvägen 141,Högdalen,18.04453835,59.26043911,61.5,2,0,3085,2017-10-18,1995000,2300000,1069.32726615823
Torsgatan 42,Vasastan,18.03829927,59.34088886,43.5,2,2,2132,2017-10-18,4300000,4175000,1070.40871220449
Högalidsgatan 36B,Södermalm,18.03766943,59.31827999,111,4,6,4855,2017-10-18,9975000,10530000,1069.9635256158
Tavastgatan 8,Södermalm Maria,18.06425877,59.32012822,30,1,3,1607,2017-10-18,2500000,3710000,1071.57414643566
Essinge Brogata 8,Lilla Essingen Kungsholmen,18.0071325,59.32541705,34,1,5,1610,2017-10-18,2295000,2870000,1068.28064543711
Torsgatan 49,Birkastan,18.03689003,59.34174138,66,2,4,2800,2017-10-18,5495000,5800000,1070.34046345976
Pastellvägen 34,Blåsut,18.08797002,59.29035901,40,2,1,2034,2017-10-18,2295000,2650000,1072.44223624792
Gubbkärrsvägen 29R,Bromma,17.91363716,59.33150395,43,1.5,1,2732,2017-10-18,1995000,2500000,1062.84303391741
Sveaborgsgatan 11,Kista,17.91366343,59.41655889,73,3,4,4428,2017-10-18,1995000,2100000,1064.36823812423
Sandhamnsgatan 47,Gärdet,18.11125422,59.34271712,146,6,5,7489,2017-10-18,13950000,13300000,1074.77103586587
Skeppargatan 90,Gärdet,18.08961006,59.3417976,33,1,3,1166,2017-10-18,2950000,3500000,1073.46997884344
Hagagatan 15F,Vasastan,18.05157243,59.34450942,118,4.5,5,4999,2017-10-18,9425000,11000000,1071.26171011795
Hornsbergs Strand 15B,Kungsholmen,18.015014,59.33964228,47,1.5,0,2546,2017-10-18,2975000,3175000,1069.00448642919
Kungsholmsgatan 52,Kungsholmen,18.03932993,59.33234068,43,2,3,1940,2017-10-18,3695000,4225000,1070.31566904568
Arvid Mörnes väg 54,Bromma Blackeberg,17.87517266,59.34758529,69,3,1,3673,2017-10-18,2590000,2790000,1060.84833401283
Nordenflychtsvägen 62,Kungsholmen,18.00948,59.33812,62,2,2,1774,2017-10-18,4495000,4750000,1068.6486853776
Per Lindeströms väg 64,Johanneshov,18.10024071,59.29827881,53,2,3,3632,2017-10-18,2995000,2995000,1073.31312014969
Råcksta Gårdsväg 23,Vällingby,17.88709,59.35469,42,2,6,3149,2017-10-18,1995000,2350000,1061.6826819521
Styrmansgatan 23,Östermalm,18.08608101,59.33382966,46,2,0,1898,2017-10-18,4695000,4695000,1073.1164498643
Hagagatan 12,Vasastan,18.05214347,59.3450242,72,3,2,3371,2017-10-18,6750000,6400000,1071.30489108902
Harplingegränd 16,Älvsjö,18.03539207,59.28820911,83,3,2,5023,2017-10-18,2190000,2650000,1069.286096427
Porlabacken 36,Bandhagen,18.02016,59.26207,108,4,2,6571,2017-10-18,2195000,2600000,1067.9119833312
Mirabellbacken 22,Hässelby Strand,17.83867465,59.35892994,76,3,1,3992,2017-10-18,2275000,2650000,1058.8846387718
Söderberga Allé 68,Söderberga Allé,17.89579,59.35801,101,4,4,7415,2017-10-18,2295000,2650000,1062.2584817779
Paternostervägen 28,Hammarbyhöjden,18.09815,59.29123,23,1,2,968,2017-10-18,1895000,2200000,1073.0615742245
Lindhagensgatan 145,Kungsholmen,18.00480964,59.33923018,49,2,6,3145,2017-10-18,3995000,4300000,1068.39154357504
Fridhemsgatan 15,Kungsholmen,18.02747,59.33144,23,1,7,1185,2017-10-18,2700000,2500000,1069.5957546568
Fyrvaktarkroken 60,Blåsut,18.09434406,59.29048215,74.5,3,1,4222,2017-10-18,3795000,3795000,1072.82238350539
Kungsholmsgatan 9,Kungsholmen,18.04915428,59.33079147,39,2,7,2807,2017-10-18,3495000,4070000,1070.87060879654
Vävstolsvägen 1,Bromma,17.93455839,59.34104658,56,2,2,3489,2017-10-18,2250000,2725000,1064.25546481272
Bjurholmsplan 19,Södermalm,18.0806,59.3097,43,2,3,2734,2017-10-18,3295000,3725000,1072.35496182
Vegagatan 9,Vasastan,18.05067658,59.3416429,85,3,3,1019,2017-10-17,6995000,7950000,1071.15680371375
Wollmar Yxkullsgatan 10,Maria,18.06271929,59.3168934,77,3,2,2307,2017-10-17,7750000,7750000,1071.42439463905
Ringvägen 130,Södermalm,18.08190823,59.30829281,69,3,2,2676,2017-10-17,4800000,4800000,1072.40710786839
Vikingagatan 28,Vasastan,18.03387523,59.34212433,38,2,2,938,2017-10-17,2995000,4000000,1070.16846605037
Disponentgatan 2,Lilla Essingen Kungsholmen,18.00855517,59.32472837,25,1,3,928,2017-10-17,1995000,2650000,1068.35264379641
Kolbäcksgränd 9,Skarpnäcks stadsdelsområde,18.13972463,59.27722121,40,2,3,2529,2017-10-17,2150000,2450000,1075.272469581
Kristinebergsvägen 7,Kungsholmen,18.01397515,59.33257488,42,1,2,1990,2017-10-17,2995000,3500000,1068.81552947383
Frejgatan 23,Vasastan,18.05837989,59.34758917,44,2,3,2327,2017-10-17,3550000,4100000,1071.72131078751
Sandhamnsgatan 57A,Gärdet,18.1114018,59.34186174,64,2,1,3467,2017-10-17,3950000,4215000,1074.76430153319
Skeppargatan 98,Gärdet,18.09044073,59.34274225,19,1,5,1017,2017-10-17,1995000,2550000,1073.53636142929
Sköntorpsvägen 73,Årsta,18.05777,59.29938,42.7,2,1,2548,2017-10-17,2375000,2600000,1070.8145651826
Beckombergavägen 212,Bromma,17.90209293,59.35487425,94,4,2,5307,2017-10-17,4295000,4495000,1062.57647467196
Tosterövägen 5,Älvsjö Liseberg,18.03389668,59.27973889,83.5,4,2,5268,2017-10-17,2650000,2880000,1069.04468635964
Västeråsgatan 11,Vasastan,18.04128832,59.34678226,110,4,3,5489,2017-10-17,8995000,9270000,1070.69240961692
Knäredsgränd 3,Älvsjö,18.03469775,59.28554943,68,3,0,5003,2017-10-17,2150000,2170000,1069.19696491273
Ågesta Broväg 48,Farsta-Farsta Strand-Larsboda,18.1017673,59.23987021,43,2,1,2900,2017-10-17,2095000,2460000,1072.34634542362
Ekshäradsgatan 81,Farsta,18.09198,59.23698,77,3,5,4537,2017-10-17,1995000,2625000,1071.7142574204
Rangstagatan 18,Bandhagen,18.04089,59.26523,85,4,9,4858,2017-10-17,3895000,3895000,1069.1974952547
Mariestadsvägen 25,Skarpnäcks stadsdelsområde,18.10993308,59.29699618,66,3,3,4495,2017-10-17,4250000,4250000,1073.86463266482
P O Hallmans gata 11,Kungsholmen,18.04122448,59.33508822,83.5,3,7,3543,2017-10-17,6250000,6250000,1070.47764611762
Bäckvägen 83,Telefonplan,17.99375167,59.30203477,44,2,2,3498,2017-10-17,2495000,2820000,1067.06608717709
Brantingsgatan 23,Östermalm Gärdet,18.09526345,59.3463092,40.5,2,4,2106,2017-10-17,4100000,4250000,1073.88709975916
Hagagatan 17E,Vasastan,18.05091458,59.34558425,78,3,5,3496,2017-10-17,6700000,6700000,1071.24207199694
Lilla Bantorget 25,Vasastan,18.05141959,59.33539242,111,5,1,4678,2017-10-17,9500000,9000000,1071.08806511073
Tegnérgatan 11,Norrmalm,18.06326547,59.34033493,57,2,2,2474,2017-10-17,5350000,6500000,1071.8802229193
Mälarhöjdsvägen 2,Hägersten-Liljeholmen,17.95604205,59.30162958,56.1,3,1,3852,2017-10-17,3300000,3300000,1064.822554372
Kungssätravägen 14,Skärholmen,17.9237417,59.28643608,36,1.5,3,2504,2017-10-17,1750000,1920000,1062.63476661148
Söndagsvägen 61,Hökarängen Befinner Sig,18.09548687,59.2560146,105,5,0,5944,2017-10-17,5450000,5600000,1072.26643416283
Krukmakargatan 58,Södermalm,18.04618304,59.31592444,88,4,4,3675,2017-10-17,6495000,6625000,1070.42602963105
Surtsögatan 3,Kista,17.93791914,59.40837086,71.5,3,4,3931,2017-10-17,3195000,3195000,1065.66255272581
Vegagatan 7,Vasastan,18.05081606,59.34149519,83,3,3,3859,2017-10-17,7995000,8700000,1071.16241440006
Sköntorpsvägen 9,Årsta,18.0687,59.2983,70,3,4,3220,2017-10-17,4300000,4000000,1071.44319321
Heleneborgsgatan 26,Södermalm,18.03787185,59.31937158,73,2.5,3,2731,2017-10-17,6995000,6810000,1069.99522278257
Kommendörsgatan 8P,Östermalm,18.07778875,59.33869855,47,2,4,2116,2017-10-17,4450000,5000000,1072.71245708683
Kronobergsgatan 20,Kungsholmen,18.03541501,59.33550545,23,1,2,1385,2017-10-17,2795000,2950000,1070.14046561887
Kallforsvägen 21,Bandhagen,18.04592218,59.27296921,60.5,2,4,3329,2017-10-17,2195000,2500000,1069.6353897412
Roslagsgatan 40D,Sibirien,18.05830479,59.34883081,59,2,2,2075,2017-10-17,4995000,5125000,1071.73927569712
Östermalmsgatan 30,Östermalm,18.07069441,59.34331423,60,2,3,3200,2017-10-17,5195000,5100000,1072.37489672693
Kungsbro Strand 17,Kungsholmen,18.05135226,59.33029826,52.5,2,6,3628,2017-10-17,4495000,4445000,1070.99211358213
Stavangergatan 70,Husby,17.92906368,59.41237635,76,3,0,4821,2017-10-17,1550000,1800000,1065.20827895928
Älvsåkersgränd 27,Enskede-Årsta-Vantör,18.03091608,59.28772347,95,4,0,5597,2017-10-17,2350000,2655000,1069.01196646182
Körsbärsvägen 6,Östermalm,18.06521,59.34898,54,3,2,3621,2017-10-17,3495000,3750000,1072.1517869858
Levertinsgatan 1,Kungsholmen,17.99877,59.33384,35,1.5,2,2481,2017-10-17,2900000,2850000,1067.9361393768
Hagagatan 16,Vasastan,18.05198267,59.34525146,103,4,3,4303,2017-10-17,8995000,8600000,1071.29945090271
Frödingsvägen 10,Kungsholmen,18.0036,59.33116,46,2,0.5,2791,2017-10-16,3095000,3600000,1068.174472176
Köpenhamnsgatan 32,Kista,17.93704,59.4011,100,4,5,4456,2017-10-16,3095000,3270000,1065.479906744
Fatburs Brunnsgata 15,Södermalm,18.067,59.3143,97.5,4,4,5914,2017-10-16,5995000,5995000,1071.6314581
Skebokvarnsvägen 245,Högdalen,18.03486524,59.26458322,60,2,4,3420,2017-10-16,1995000,2380000,1068.82877187747
Ruddammsvägen 6,Östermalm,18.06439039,59.34967968,48,2,3,2374,2017-10-16,3490000,3720000,1072.11578326097
Hårdvallsgatan 11,Norra Djurgårdsstaden,18.089434,59.35393093,55,2,1,3694,2017-10-16,3495000,3595000,1073.67901619879
Sandfjärdsgatan 130,Årsta,18.05450946,59.2919842,59.5,2,1,3257,2017-10-16,2800000,2610000,1070.48768964107
Dannemoragatan 18,Vasastan,18.04394606,59.34882896,56,3,3,2800,2017-10-16,4495000,4200000,1070.88706847841
Karlavägen 59B,Östermalm,18.0803089,59.3400652,34,1,4,1639,2017-10-16,3850000,3625000,1072.88670896214
Upplandsgatan 28,Vasastan,18.05147397,59.34008149,71.5,3,7,3728,2017-10-16,5950000,5950000,1071.17593639441
Grubbensringen 2,Kungsholmen,18.04198084,59.33351628,71.5,3.5,1,4590,2017-10-16,5495000,5700000,1070.49416389359
Borgarfjordsgatan 21A,Rinkeby-Kista,17.94174291,59.40503992,59,2,21,3425,2017-10-16,2595000,2775000,1065.82995380293
Karlavägen 59B,Östermalm,18.0803089,59.3400652,34,1,4,1639,2017-10-16,3850000,3860000,1072.88670896214
Rörstrandsgatan 36,Vasastan Birkastan,18.02901208,59.34107453,37,1,1,2033,2017-10-16,3175000,3550000,1069.86094954155
Primusgatan 52,Essingeöarna,18.00117699,59.32389781,63,2,5,3706,2017-10-16,3695000,4175000,1067.89998421448
Cirkusvägen 13,Telefonplan,18.00709757,59.29555047,49,2,2,3140,2017-10-16,2195000,2800000,1067.74076278015
Vinodlargatan 2,Liljeholmskajen,18.0320261,59.30711458,96.5,5,6,5657,2017-10-16,7995000,8300000,1069.42743802225
Abrahamsbergsvägen 19,Abrahamsberg,17.95214295,59.33543295,71,3,3,3019,2017-10-16,4475000,4600000,1065.19817431854
Pellepennans gata 3,Bromma,17.94616699,59.36296695,96,4,4,5308,2017-10-16,4795000,4795000,1065.33771790655
Birger Jarlsgatan 104A,Vasastan,18.06232357,59.34741662,21,1,1,1559,2017-10-16,1995000,2350000,1071.95224203404
Tulegatan 47,Vasastan,18.05773855,59.3465575,60,2,6,882,2017-10-16,4795000,4795000,1071.66461917754
Gästrikegatan 8,Vasastan,18.04020725,59.34108487,85,3,3,4318,2017-10-16,8400000,8500000,1070.52546949464
Bastuhagsvägen 59,Enskede-Årsta-Vantör,18.04752765,59.27554776,47.5,2,4,2935,2017-10-16,2375000,2900000,1069.7770871675
Hägerstensvägen 122,Aspudden,18.00239682,59.30595439,75,3,4,3959,2017-10-16,6500000,6150000,1067.6493247176
Sandhamnsgatan 39,Östermalm,18.11092066,59.34298335,65,2,4,4136,2017-10-16,4375000,4375000,1074.75606317955
Fendergatan 6,Hammarby Sjöstad,18.10442805,59.30839685,51,2,4,3383,2017-10-15,0,3500000,1073.74460353167
Högalidsgatan 32B,Södermalm,18.03876121,59.31846733,64,2,2,2845,2017-10-15,4995000,5600000,1070.03166750906
Runda vägen 22A,Äppelviken,17.98016268,59.33066497,65,3,3,3403,2017-10-15,4500000,4500000,1066.77500807318
Erik Segersälls väg 1,Aspudden,18.00118,59.3059,74,3,2,3456,2017-10-15,5295000,6155000,1067.576180962
Olaus Magnus väg 20,Johanneshov,18.0890032,59.29801134,41,2,3,2889,2017-10-15,2500000,2670000,1072.6419168829
Sandhamnsgatan 25,Gärdet,18.1104362,59.34455326,80,3,2,2406,2017-10-15,5995000,6300000,1074.75574563273
Hantverkargatan 87A,Kungsholmen,18.02842436,59.33133664,48.5,2,4,2885,2017-10-15,4350000,4810000,1069.65051479194
Björketorpsvägen 13,Norra Ängby,17.88985713,59.35526846,48,2,4,3172,2017-10-15,1995000,2260000,1061.8572726622
Bjulevägen 26B,Stureby,18.04236325,59.28130087,35,1.5,0,2752,2017-10-15,2000000,1950000,1069.57476422908
Narvavägen 24A,Östermalm,18.09235312,59.33598118,48,2,4,1915,2017-10-15,4900000,5250000,1073.52752423023
Gambrinusgatan 5,Kungsholmen,18.03765867,59.33032171,48,2,1,3015,2017-10-15,3950000,3950000,1070.18009178627
Kolbäcksgränd 9,Bagarmossen,18.13972463,59.27722121,40,1.5,1,2649,2017-10-15,1995000,2240000,1075.272469581
Östgötagatan 81,Södermalm,18.07940841,59.30906494,100,4,1,3072,2017-10-15,7950000,8600000,1072.27280746547
Nybrogatan 68A,Östermalm,18.08329225,59.34133654,41.3,2,2,1122,2017-10-15,3995000,4300000,1073.08673115842
Norrtullsgatan 38,Vasastan,18.04480171,59.34967422,28,1,5,1538,2017-10-15,2800000,2600000,1070.953102853
Fastlagsvägen 54,Midsommarkransen,17.99263358,59.30304621,45,2,0,2728,2017-10-15,2395000,2630000,1067.01798063434
Swedenborgsgatan 4B,Södermalm,18.06334479,59.3172022,68,3,5,2584,2017-10-15,5895000,7085000,1071.46707531675
Medsolsbacken 17,Hässelby Strand,17.83490259,59.36011558,100,4,0,5516,2017-10-15,2700000,2900000,1058.68187910044
Kinnekullevägen 49,Traneberg,17.98075676,59.33679541,53,2,2,2775,2017-10-14,3395000,3810000,1066.92048518509
Vantörsvägen 276,Fruängen,17.9524342,59.28639729,40,2,2,2729,2017-10-14,2650000,2400000,1064.33514630378
Bellmanskällevägen 8B,Mälarhöjden,17.95544266,59.30237636,35.5,2,0,2631,2017-10-14,2500000,2600000,1064.80041833372
Gyllenborgsgatan 11,Kungsholmen,18.01571986,59.33284455,40,2,2,2023,2017-10-14,3395000,3680000,1068.92390590973
Fendergatan 11,Hammarby Sjöstad,18.10488587,59.30813931,54,2,0,3898,2017-10-14,3195000,3225000,1073.76709336961
Kamomillagatan 3,Bromma,17.94998646,59.36129389,55,2,2,3368,2017-10-14,2695000,2900000,1065.53442157358
Grev Turegatan 71,Östermalm,18.08058058,59.34198976,127,5,3,5707,2017-10-14,12500000,11500000,1072.93762763321
Fatburstrappan 12,Södermalm,18.06997,59.31503321,112,5,2,8274,2017-10-14,7300000,7800000,1071.8208706537
Larsbodavägen 76,Farsta,18.0981796,59.24449465,52,2,8,3226,2017-10-14,1995000,2420000,1072.21750448694
Torsbygatan 20,Farsta,18.0963,59.2432,89.5,4,6,4288,2017-10-14,2995000,3430000,1072.08272016
Lotterivägen 43,Hägerstensåsen,17.97976425,59.29746492,53,2,3,2868,2017-10-14,3150000,3150000,1066.15443988425
Ekshäradsgatan 91,Farsta,18.0945,59.2354,59.5,3,3,3334,2017-10-14,2195000,2400000,1071.8349453
Skeppargatan 41,Östermalm,18.08429406,59.3359476,116,4,1,3250,2017-10-14,11900000,11950000,1073.04872472715
Södermannagatan 76,Södermalm,18.08334468,59.30743814,47,2,5,2548,2017-10-14,3495000,3520000,1072.4768459734
Smedsbacksgatan 20,Gärdet,18.09938786,59.34819761,39,2,4,3418,2017-10-14,2995000,3250000,1074.16604733532
Gästrikegatan 3,Vasastan,18.0401,59.34072,27,1,2,1527,2017-10-14,2750000,3220000,1070.512522872
Dalbobranten 35,Sköndal,18.11431,59.25433,84.5,4,7,3867,2017-10-14,3150000,3710000,1073.3513024623
Hägerstensvägen 118,Aspudden,18.00320816,59.30592728,64,3,1,3366,2017-10-14,4895000,4895000,1067.69695394366
Birger Jarlsgatan 104D,Vasastan Östermalm,18.06222343,59.3475914,30,1,1,2279,2017-10-14,2495000,2800000,1071.94945589915
Vallfartsvägen 4,Aspudden,18.00108541,59.3052789,26,1,2,1562,2017-10-14,1995000,2350000,1067.55939074277
Essinge Högväg 18,Stora Essingen,17.98547,59.31907,27,1,3,1957,2017-10-14,2250000,2420000,1066.8813539129
Knypplerskevägen 28,Brommaplan,17.93218732,59.33882531,55,2,1,3576,2017-10-14,2495000,3025000,1064.07493080768
Askängsbacken 5,Bromma,17.95830131,59.36108612,27,1,1,1928,2017-10-14,1895000,2245000,1066.02427063182
Götalandsvägen 245,Älvsjö Centrum,18.00422,59.27997,70,3,2,3617,2017-10-14,3495000,3850000,1067.2896214734
Vänskapsvägen 51,Essingeöarna,17.98732236,59.32168855,50,2,3,3395,2017-10-14,3295000,3845000,1067.03833488837
Rämensvägen 19,Årsta,18.0477,59.2957,45,2,2,3230,2017-10-14,2275000,2600000,1070.15100489
Långhalsvägen 6,Årsta,18.05848439,59.2968814,67.8,3,3,4145,2017-10-14,3850000,3750000,1070.81180713758
Tegelbruksvägen 14,Midsommarkransen,18.01344071,59.3031531,41,2,1,3203,2017-10-14,2495000,2720000,1068.2538322829
Sibyllegatan 69,Östermalm,18.08329248,59.34041959,73,2,0,1327,2017-10-14,5450000,6100000,1073.07016333189
Malmgårdsvägen 18,Sofia,18.0890413,59.30959464,25,1,1,1454,2017-10-14,2295000,2625000,1072.85370692922
Lindhagensgatan 139B,Kungsholmen,18.00598113,59.33859178,98.5,4,3,3693,2017-10-14,6995000,7100000,1068.44956387145
Erik Segersälls väg 11,Aspudden,18.00029,59.30679,37,1.5,2,2066,2017-10-14,2495000,2900000,1067.5394189691
Linnégatan 20,Östermalm,18.07870127,59.33750875,21.5,1,0,1310,2017-10-14,1995000,2560000,1072.74509479726
Larsbodavägen 59,Farsta,18.0956519,59.2455069,89,4,2,4810,2017-10-13,3495000,3495000,1072.08606950145
Skebokvarnsvägen 87,Bandhagen,18.04108684,59.26932567,25,1,3,1779,2017-10-13,1595000,1910000,1069.28305136071
Svandammsvägen 10,Midsommarkransen,18.01422067,59.30182852,45,2,3,3329,2017-10-13,2650000,3085000,1068.27622509378
Ullerudsbacken 67,Farsta Strand,18.09616685,59.23212687,43,2,0,1814,2017-10-13,1995000,2450000,1071.87445071989
Stockholmsvägen 45,Gamla Enskede,18.0858779,59.28221064,124,5,1,5220,2017-10-13,6750000,7650000,1072.17082327712
Bäckaskiftsvägen 66,Stureby,18.0500865,59.27423025,70,3.5,1,3133,2017-10-13,3100000,3900000,1069.90498323342
Hornsgatan 142,Södermalm,18.04036617,59.31626521,51,2,2.5,1965,2017-10-13,3395000,3855000,1070.08714422523
Folkungagatan 136,Sofia-Södermalm,18.0890429,59.31543849,120,4,3,6020,2017-10-13,7995000,9000000,1072.95951147792
Hovstagränd 9,Ängssätra,18.01898766,59.26610565,104,5,2,6975,2017-10-13,2695000,3000000,1067.91522636361
Sköndalsvägen 110,Sköndal,18.11785081,59.25273657,42.5,2,6,2242,2017-10-13,1795000,2200000,1073.53224125949
Körsbärsvägen 6,Östermalm,18.06521,59.34898,24,1,1,1959,2017-10-13,2195000,2550000,1072.1517869858
Bällstavägen 62,Bromma,17.94642448,59.36116813,69,2,1,4341,2017-10-13,2995000,3250000,1065.32072088963
Karlsbodavägen 40,Bromma Mariehäll,17.96221733,59.35825373,89,3,4,5545,2017-10-13,4795000,5025000,1066.20585382754
Johannesfredsvägen 38,Bromma,17.97305346,59.34648424,54,3,2,3614,2017-10-13,2950000,2950000,1066.63753390857
Hasselquistvägen 28,Hammarbyhöjden,18.10279727,59.29659912,55,2,3,3968,2017-10-13,3095000,3210000,1073.43431266982
Kallforsvägen 35,Bandhagen,18.04525,59.27229,68,3,1,3581,2017-10-13,2595000,3050000,1069.5832911225
Hjälmarsvägen 24A,Årsta,18.05332323,59.29821877,59,2,2,4195,2017-10-13,2495000,3000000,1070.52991041806
Brännkyrkagatan 88,Högalid,18.04897673,59.31806737,90,4,2,4634,2017-10-13,7450000,8300000,1070.6304176297
Lidnersgatan 8,Kungsholmen,18.00094781,59.33522844,48,2,5,3732,2017-10-13,3595000,4350000,1068.09035044287
Klippgatan 14I,Sofia,18.0881,59.3144,34.5,1,1,1835,2017-10-13,0,3550000,1072.88479864
Skarpnäcks Allé 9,Skarpnäck,18.1253,59.2693,77,3,0,4623,2017-10-13,2495000,2810000,1074.27384329
Lumaparksvägen 1,Hammarby Sjöstad,18.09437513,59.30474952,87,3,1,4893,2017-10-13,5600000,6185000,1073.08238480557
Valhallavägen 42,Östermalm,18.0638,59.3476,60,2,0,2696,2017-10-13,4595000,4790000,1072.04317688
Östhammarsgatan 75,Gärdet,18.11238695,59.34412482,40.1,1.5,3,2561,2017-10-13,2895000,3250000,1074.86375194894
Kaplansbacken 5,Kungsholmen,18.05009723,59.32953928,111,4,3,5063,2017-10-13,9200000,9150000,1070.9039526151
Bergsgatan 57,Kungsholmen,18.03579518,59.3308475,155,5,2,3874,2017-10-13,13950000,13600000,1070.07901336582
Rörstrandsgatan 23,Vasastan,18.03097795,59.34036221,84,2.5,5,3643,2017-10-13,6400000,6960000,1069.96476255352
Kammakargatan 14,Vasastan,18.06322156,59.3394899,70,2.5,2,2459,2017-10-13,5695000,5695000,1071.86235332108
Smedsbacksgatan 6,Gärdet,18.1006,59.347,62,3,0,3821,2017-10-13,3995000,4100000,1074.2163082
Hornsbergs Strand 49,Kungsholmen-Hornsbergs Strand,18.00779343,59.34047213,89,4,1,4232,2017-10-13,7500000,7500000,1068.59096415571
Rådmansgatan 78,Vasastan,18.05203915,59.3387706,54,2,3,1917,2017-10-13,4495000,4500000,1071.18580998407
Upplandsgatan 54C,Vasastan,18.04818753,59.34342206,55,2,4,2327,2017-10-13,4350000,4675000,1071.04121001082
Hundlokegränd 28,Hässelby,17.83915758,59.37385624,54,2,3,3343,2017-10-13,2250000,2250000,1059.17957759763
Farstavägen 110A,Farsta,18.08793783,59.24074266,158,6,4,10815,2017-10-13,2995000,3800000,1071.54287023711
Hässleholmsvägen 9,Björkhagen,18.11920166,59.29046312,54,2,5,2886,2017-10-13,2795000,3650000,1074.29585778607
Karlavägen 88A,Östermalm,18.09264166,59.33663932,87,3,0,2865,2017-10-13,8450000,8900000,1073.55655252543
Sankt Göransgatan 64B,Kungsholmen,18.03278208,59.33326612,24,1,4,1391,2017-10-13,1995000,2870000,1069.94385803661
Ullerudsbacken 79,Farsta Strand,18.09468217,59.23277026,82.4,3,1,3422,2017-10-13,2895000,3000000,1071.79815190333
Vanadisvägen 4M,Vasastan Odenplan,18.04987192,59.34877611,55,2,4,2082,2017-10-13,4700000,5150000,1071.23780739426
Norrtullsgatan 20,Vasastan,18.04665327,59.34750712,118,3,1.5,4144,2017-10-13,8995000,9100000,1071.0238834335
Döbelnsgatan 16C,Norrmalm,18.06236029,59.34081133,66,2,5,2640,2017-10-13,5950000,6300000,1071.83511414337
Hässleholmsvägen 7,Björkhagen,18.11997781,59.29030751,72,3,3,3636,2017-10-13,3850000,4353000,1074.33905642928
Svedalavägen 14,Hammarbyhöjden,18.10767408,59.2934441,91,3.5,2,5056,2017-10-13,5500000,6010000,1073.6663608435
Tomtebogatan 20,Vasastan,18.03250184,59.341482,98,3,5,3671,2017-10-13,8500000,9000000,1070.07538335333
Upplandsgatan 41,Vasastan,18.05005425,59.3409235,107,3,5,5424,2017-10-13,9995000,11650000,1071.1068884201
Kronobergsgatan 23A,Kungsholmen,18.03393392,59.33355531,103,6,1,3768,2017-10-13,9150000,9500000,1070.01741569921
Fastlagsvägen 59,Midsommarkransen,17.99332377,59.30312212,68,3,3,4806,2017-10-13,3795000,4000000,1067.06027687701
Broddgränd 31,Västertorp,17.96651828,59.28985508,75.5,3,1,3721,2017-10-13,3495000,3495000,1065.23226511337
Sköntorpsvägen 107,Årsta,18.0518,59.3006,67,3,3,3908,2017-10-13,3875000,4320000,1070.48257108
Wollmar Yxkullsgatan 52B,Södermalm,18.05243,59.31582,39,1.5,2,2171,2017-10-13,2995000,3820000,1070.7946884426
Kapellgränd 6,Södermalm,18.07389471,59.31625262,89,3,1,4034,2017-10-13,8950000,8200000,1072.07570444564
Störtloppsvägen 24,Hägersten,17.96769889,59.29320378,55,2,2,2713,2017-10-13,3500000,2895000,1065.36243174245
Fleminggatan 49,Kungsholmen,18.03835241,59.33352287,63,3,1,1991,2017-10-13,5350000,5150000,1070.27899525586
Bastuhagsvägen 57,Enskede,18.04864883,59.27543072,90,4,4,5034,2017-10-13,4200000,4760000,1069.84143331227
Skattungsvägen 14,Årsta,18.04024506,59.29727554,57,3,0,3241,2017-10-13,2350000,2505000,1069.73738213194
Elsa Borgs gata 62,Hägersten-Liljeholmen,17.96532869,59.28282992,57,2,1,3975,2017-10-13,2495000,2700000,1065.03552518617
Eriksdalsgatan 54,Katarina,18.07096481,59.3059763,52.5,2,3,3301,2017-10-13,3495000,3725000,1071.71621073999
Rörstrandsgatan 38A,Vasastan,18.02861928,59.34102822,32,1,1,1003,2017-10-13,2790000,3250000,1069.83680546212
Färgargårdstorget 68,Södermalm-Sofia,18.09424164,59.30830029,108.5,4,1,4654,2017-10-13,6950000,7100000,1073.13871670494
Simrishamnsvägen 5,Skarpnäcks stadsdelsområde,18.11999226,59.28896922,70,3,2,3104,2017-10-13,3750000,3800000,1074.31566336978
Glasmålarvägen 2,Enskede,18.08865531,59.28836394,35,2,3,2231,2017-10-13,1995000,2420000,1072.44677920449
Pär Lagerkvists gata 30,Kungsholmen-Hornsbergs Strand,18.00609109,59.33974831,74,3,5,3428,2017-10-13,5650000,6200000,1068.47691332753
Västertorpsvägen 138,Mälarhöjden-Västertorp,17.95211146,59.29074874,74,3,3,3819,2017-10-13,2995000,3450000,1064.39412992733
Observatoriegatan 21A,Vasastan,18.04859519,59.33962958,44.3,2,0,1446,2017-10-13,3750000,4200000,1070.99695301397
Midsommarvägen 48,Midsommarkransen,18.00772503,59.30062305,53,2,3,3842,2017-10-13,2750000,2750000,1067.86931399208
Doktor Widerströms gata 46,Fruängen,17.95674562,59.28578915,63,3,1,4132,2017-10-13,2595000,3020000,1064.57983464751
Slalomvägen 9,Västertorp,17.97401905,59.29140002,55,2,3,3059,2017-10-13,2295000,2550000,1065.70475346065
Fredriksdalsgatan 12,Hammarby Sjöstad,18.08270916,59.30255081,81,3,2,4354,2017-10-13,5500000,5500000,1072.35077874335
Bergsgatan 49,Kungsholmen,18.03761959,59.33060098,77,3,3,3523,2017-10-13,6250000,6500000,1070.18281052332
Igeldammsgatan 34,Kungsholmen,18.02314294,59.33819897,37,2,1,1878,2017-10-13,2895000,3100000,1069.46084183847
Karlbergsvägen 23,Vasastan,18.04237247,59.34247446,123,4,1,4224,2017-10-13,9995000,10550000,1070.67902749878
Igeldammsgatan 20,Kungsholmen,18.02477717,59.33699238,37,1.5,2,1452,2017-10-13,2850000,3250000,1069.53606558749
Bastuhagsvägen 57,Stureby,18.04864883,59.27543072,84,4,1,4705,2017-10-13,4195000,4750000,1069.84143331227
Storsjövägen 58,Årsta,18.03863,59.29772,57,2,0,3890,2017-10-13,1975000,2600000,1069.6496309236
Vinodlargatan 6,Liljeholmen,18.03141583,59.30696265,73,3,3,4374,2017-10-13,4995000,5200000,1069.38850515643
Maria Prästgårdsgata 8,Södermalm,18.0661,59.31647,32,1,1,2032,2017-10-13,2550000,2850000,1071.617278667
Filipstadsbacken 26,Farsta,18.10601,59.23887,58.5,2,2,3910,2017-10-13,1990000,2410000,1072.5795726087
Karlsviksgatan 17,Kungsholmen,18.02908958,59.33102784,66,3,1,3320,2017-10-13,4995000,5210000,1069.68441580083
Burspråksvägen 2,Johanneshov,18.0858,59.2949,38,2,1,2445,2017-10-13,1995000,2600000,1072.39570242
Sågverksgatan 102,Enskede,18.0454,59.2808,46,2,2,3213,2017-10-13,1995000,2150000,1069.74574832
Spångavägen 40,Bromma,17.93657541,59.34196568,56,3,2,3870,2017-10-13,2295000,2510000,1064.39164239695
John Bergs Plan 2,Kungsholmen,18.02282621,59.33624999,48,2,1,1954,2017-10-13,3995000,3850000,1069.40692152288
Drakenbergsgatan 16,Hornstull,18.04010868,59.31572319,85,3,5,3940,2017-10-13,4995000,5480000,1070.0620927804
Alströmergatan 35,Kungsholmen,18.02965879,59.33538917,32,2,2,1758,2017-10-13,2875000,3090000,1069.79682090696
Lotta Svärds gränd 9,Fruängen,17.95300763,59.28714212,67,2,2,3977,2017-10-13,2795000,3235000,1064.38251484125
Tomtebogatan 23A,Vasastan,18.03173557,59.34105499,28,1,0,969,2017-10-13,2495000,3150000,1070.02221202451
Sandfjärdsgatan 21,Årsta,18.04546708,59.29515726,57.5,2,2,3262,2017-10-13,2595000,2930000,1070.00880833875
Lofotengatan 4,Husby,17.92681125,59.41156891,76,3,3,5094,2017-10-13,1995000,1995000,1065.05998191594
Östhammarsgatan 69,Östermalm,18.11159492,59.3436014,39,1,0,2231,2017-10-13,2495000,2850000,1074.80726965075
Wargentinsgatan 4,Kungsholmen,18.04089368,59.3324842,20,1,4,1508,2017-10-13,1995000,2610000,1070.41103922248
Ekholmsvägen 301,Skärholmen,17.9051884,59.28069331,54,2,5,2621,2017-10-13,2190000,2450000,1061.43198219817
Kungssätravägen 58,Sätra,17.91878403,59.28587458,48,1,2,2780,2017-10-13,1790000,2240000,1062.33078262869
Grevgatan 39,Östermalm,18.0858107,59.3356248,34,1,0,1237,2017-10-13,3700000,3700000,1073.13287789903
Södermannagatan 41C,Katarina,18.08289406,59.31010656,24,1,2.5,1145,2017-10-13,2295000,2200000,1072.49837361179
Ålgrytevägen 29,Skärholmen,17.94165335,59.29850392,49,2,4,2978,2017-10-12,2000000,2575000,1063.91320150626
Tomtebogatan 9A,Vasastan,18.03489447,59.3412107,69.3,3,1,2675,2017-10-12,5750000,7150000,1070.21247269654
Timmermansgatan 33,Södermalm-Maria,18.06151784,59.31565087,51,2,3,3358,2017-10-12,3995000,4325000,1071.33068637972
Bildhuggarvägen 4,Johanneshov,18.07694785,59.29547416,41,2,3.5,2420,2017-10-12,2495000,2850000,1071.88119413134
Götalandsvägen 211B,Älvsjö,18.01285744,59.28007507,66,2,1,3981,2017-10-12,2695000,2695000,1067.80354126841
Pokalvägen 5,Södermalm,18.0212152,59.31860839,40,1,6,2416,2017-10-12,2795000,3225000,1068.99340716072
Grevgatan 53,Östermalm,18.08683276,59.33697597,36,2,1,708,2017-10-12,3895000,3910000,1073.21796085353
Spångavägen 42A,Bromma,17.9363,59.3423,42,2,3,2243,2017-10-12,2190000,2360000,1064.38129549
Skridskovägen 9E,Västertorp,17.97562059,59.29249633,70,2,0,4243,2017-10-12,3295000,3295000,1065.81941786205
Hornsgatan 29F,Södermalm,18.0640018,59.31853175,55,2,0,2308,2017-10-12,4495000,4780000,1071.53006430536
Åkerhielmsgatan 24,Ulvsunda,17.97031375,59.33772525,65,2,2,4162,2017-10-12,2995000,3400000,1066.3175399538
Marieviksgatan 38,Liljeholmskajen,18.02817044,59.30881552,64,2,3,3781,2017-10-12,3795000,4220000,1069.22943478908
Fredrikslundsvägen 47,Abrahamsberg,17.93754941,59.33378442,74,3,3,4365,2017-10-12,3995000,4550000,1064.30268971604
Varvsgatan 1B,Södermalm,18.03925,59.31977,72,3,5,3175,2017-10-12,6295000,7000000,1070.0841609725
Blommensbergsvägen 132,Hägersten,18.00450707,59.31007013,64.5,2,2,4434,2017-10-12,2995000,3425000,1067.84857697778
Dukvägen 40,Bromma,17.9475,59.33945,51,2,2,2722,2017-10-12,2695000,3020000,1064.994778875
Mariehamnsgatan 28,Akalla,17.91141,59.41436,85,3,3,4864,2017-10-12,2100000,2110000,1064.1949618476
Fjugestagränd 1,Ormkärr,18.00660753,59.26347455,58,2,1,2846,2017-10-12,1875000,2175000,1067.13412708599
Pontonjärgatan 4,Kungsholmen,18.03829551,59.32848302,30,1,3,2081,2017-10-12,2650000,2970000,1070.18470887478
Margaretha Krooks gata 6,Örnsberg,17.98516216,59.3071984,89,4,4,4711,2017-10-12,5695000,6000000,1066.64958047929
Typografvägen 8,Hägersten-Liljeholmen,17.98945539,59.3047575,42,2,3,2484,2017-10-12,2495000,2910000,1066.86028946102
Hövdingagatan 1,Hägersten-Liljeholmen,17.99746451,59.30652507,56,2.5,1,3372,2017-10-12,3495000,3650000,1067.36708015875
Pokalvägen 6,Södermalm,18.02277915,59.31853371,76.5,3,4,4108,2017-10-12,6295000,7250000,1069.08483255716
Upplandsgatan 71,Vasastan,18.04658251,59.3444105,39,2,0,1368,2017-10-12,2995000,3510000,1070.96380059556
Rödabergsgatan 5,Vasastan,18.03684529,59.3441824,50,2,2,2478,2017-10-12,4435000,4435000,1070.38183681034
Lustgårdsgatan 3,Kungsholmen,18.01327759,59.33590919,56,3,1,3119,2017-10-12,3850000,4200000,1068.8342032945
Ågesta Broväg 40,Farsta Strand,18.10276508,59.24091276,47.5,2,2,3589,2017-10-12,1995000,2350000,1072.42432681905
Storforsplan 5,Farsta stadsdelsområde,18.09115555,59.24170525,111,5,2,6107,2017-10-12,3495000,3710000,1071.750904725
Lundagatan 42A,Södermalm,18.04480884,59.31853417,40.5,2,2,2062,2017-10-12,2995000,3470000,1070.39160976666
Broddgränd 13,Västertorp,17.96935877,59.28980783,73.5,3,2,3583,2017-10-12,3400000,3400000,1065.39982830163
Kallforsvägen 45,Bandhagen,18.04639,59.27255,67,3,2,3722,2017-10-12,2935000,2935000,1069.6555535945
Lidnersplan 8,Kristineberg,17.99849153,59.33601296,27,2,3,1840,2017-10-12,2495000,2950000,1067.95872668453
Norrbackagatan 24,Vasastan,18.03055,59.33966064,115,4,5,3991,2017-10-12,8995000,9725000,1069.92671815255
Upplandsgatan 67A,Högst,18.04644144,59.34399148,75,3,3,3329,2017-10-12,6995000,7800000,1070.94786705968
Karlsviksgatan 16,Kungsholmen,18.0292,59.3308,53,2,3,1225,2017-10-12,4395000,5025000,1069.68685936
